id_estacion,estado_ruta,nombre_estacion,estado,municipio,situacion_operativa,latitud,longitud,altitud_msnm,registros_leidos_en_periodo,registros_fuera_periodo,fechas_invalidas,filas_4_variables_faltantes_eliminadas,filas_inconsistencias_eliminadas,filas_coord_fuera_rango_eliminadas,duplicados_fecha_detectados,registros_finales,fecha_min_final,fecha_max_final,tiene_registros_finales
01001,Aguascalientes,AGUASCALIENTES (OBS),AGUASCALIENTES,AGUASCALIENTES,OPERANDO,21.85027778,-102.2908333,1890.8,9061,19357,0,18,0,0,0,9043,2001-01-01,2025-12-31,True
01003,Aguascalientes,CALVILLO (SMN),AGUASCALIENTES,CALVILLO,SUSPENDIDA,21.88333333,-102.7188889,1640.0,0,18487,0,0,0,0,0,0,,,False
01004,Aguascalientes,CAÑADA HONDA,AGUASCALIENTES,AGUASCALIENTES,OPERANDO,22.00083333,-102.1988889,1925.0,9068,11229,0,0,0,0,0,9068,2001-01-01,2025-12-31,True
01005,Aguascalientes,PRESA EL NIAGARA,AGUASCALIENTES,AGUASCALIENTES,OPERANDO,21.78055556,-102.3716667,1844.0,9130,16028,0,3,0,0,0,9127,2001-01-01,2025-12-31,True
01006,Aguascalientes,EL TULE (SMN),AGUASCALIENTES,ASIENTOS,SUSPENDIDA,22.08166667,-102.0913889,1960.0,0,16997,0,0,0,0,0,0,,,False
01007,Aguascalientes,JESUS MARIA (SMN),AGUASCALIENTES,JESÚS MARÍA,SUSPENDIDA,21.96222222,-102.3447222,1880.0,0,16916,0,0,0,0,0,0,,,False
01008,Aguascalientes,PUERTO DE LA CONCEPCION,AGUASCALIENTES,TEPEZALÁ,OPERANDO,22.20277778,-102.135,2322.8,9131,15209,0,14,0,0,0,9117,2001-01-01,2025-12-31,True
01009,Aguascalientes,LA LABOR (SMN),AGUASCALIENTES,CALVILLO,SUSPENDIDA,21.96222222,-102.6947222,1740.0,0,14981,0,0,0,0,0,0,,,False
01010,Aguascalientes,LA TINAJA,AGUASCALIENTES,SAN JOSÉ DE GRACIA,OPERANDO,22.16444444,-102.5541667,2525.7,8643,14395,0,0,0,0,0,8643,2001-01-01,2024-09-30,True
01011,Aguascalientes,MALPASO,AGUASCALIENTES,CALVILLO,OPERANDO,21.86,-102.6638889,1730.2,9100,18858,0,0,0,0,0,9100,2001-01-01,2025-12-31,True
01012,Aguascalientes,PRESA MEDIA LUNA,AGUASCALIENTES,CALVILLO,OPERANDO,21.79444444,-102.8016667,1588.7,9126,11153,0,11,0,0,0,9115,2001-01-01,2025-12-27,True
01013,Aguascalientes,MESILLAS,AGUASCALIENTES,TEPEZALÁ,OPERANDO,22.31333333,-102.1658333,2020.5,8794,13585,0,10,0,0,0,8784,2001-01-01,2025-11-30,True
01014,Aguascalientes,PABELLON CAMPO EXPERIMENTAL,AGUASCALIENTES,PABELLÓN DE ARTEAGA,OPERANDO,22.16694444,-102.2927778,1933.7,6498,22495,0,91,0,0,0,6407,2001-01-01,2024-06-30,True
01015,Aguascalientes,PALO ALTO,AGUASCALIENTES,EL LLANO,OPERANDO,21.91638889,-101.9694444,2037.5,8994,12276,0,1,0,0,0,8993,2001-01-01,2025-08-31,True
01016,Aguascalientes,GANADERIA PEÑUELAS,AGUASCALIENTES,AGUASCALIENTES,SUSPENDIDA,21.71055556,-102.2822222,1850.0,221,9190,0,0,0,0,0,221,2022-01-03,2024-02-29,True
01017,Aguascalientes,PRESA POTRERILLOS,AGUASCALIENTES,SAN JOSÉ DE GRACIA,OPERANDO,22.23277778,-102.4436111,2171.9,9068,21320,0,12,0,0,0,9056,2001-01-01,2025-12-31,True
01018,Aguascalientes,PRESA PLUTARCO ELIAS CALLES,AGUASCALIENTES,SAN JOSÉ DE GRACIA,OPERANDO,22.14138889,-102.4152778,2053.1,9123,24596,0,9,0,0,0,9114,2001-01-01,2025-12-31,True
01019,Aguascalientes,PRESA JOCOQUE,AGUASCALIENTES,PABELLÓN DE ARTEAGA,OPERANDO,22.12805556,-102.3594444,2006.2,9117,21422,0,14,0,0,0,9103,2001-01-01,2025-12-31,True
01020,Aguascalientes,PRESA LA CODORNIZ,AGUASCALIENTES,CALVILLO,OPERANDO,21.99666667,-102.6741667,1850.2,9054,13708,0,30,0,0,0,9024,2001-01-16,2025-12-31,True
01021,Aguascalientes,RANCHO VIEJO,AGUASCALIENTES,SAN JOSÉ DE GRACIA,OPERANDO,22.12333333,-102.5111111,2126.6,8636,15081,0,9,0,0,0,8627,2001-01-01,2025-08-31,True
01022,Aguascalientes,SAN BARTOLO,AGUASCALIENTES,AGUASCALIENTES,OPERANDO,21.74805556,-102.1702778,1997.6,8996,18870,0,4,0,0,0,8992,2001-01-01,2025-08-31,True
01023,Aguascalientes,CALVILLO (DGE),AGUASCALIENTES,CALVILLO,OPERANDO,21.83666667,-102.7116667,1684.6,7597,14407,0,5,0,0,0,7592,2001-01-01,2025-02-28,True
01024,Aguascalientes,SAN ISIDRO,AGUASCALIENTES,AGUASCALIENTES,OPERANDO,21.77861111,-102.1038889,2004.4,8906,12157,0,10,0,0,0,8896,2001-01-01,2025-08-31,True
01025,Aguascalientes,SAN FRANCISCO DE LOS ROMO (SMN),AGUASCALIENTES,SAN FRANCISCO DE LOS ROMO,SUSPENDIDA,22.07722222,-102.2711111,1880.0,0,17134,0,0,0,0,0,0,,,False
01026,Aguascalientes,TEPEZALA,AGUASCALIENTES,TEPEZALÁ,OPERANDO,22.22361111,-102.1688889,2110.2,8886,14055,0,1,0,0,0,8885,2001-01-01,2025-08-31,True
01027,Aguascalientes,VENADERO (DGE),AGUASCALIENTES,JESÚS MARÍA,OPERANDO,21.87722222,-102.4633333,2025.6,8851,18811,0,23,0,0,0,8828,2001-01-01,2025-08-31,True
01028,Aguascalientes,VILLA JUAREZ,AGUASCALIENTES,ASIENTOS,OPERANDO,22.10083333,-102.0677778,1999.3,8999,18639,0,3,0,0,0,8996,2001-01-01,2025-08-31,True
01029,Aguascalientes,ASIENTOS,AGUASCALIENTES,ASIENTOS,OPERANDO,22.23972222,-102.0888889,2162.8,6484,14478,0,14,0,0,0,6470,2001-01-01,2020-11-30,True
01030,Aguascalientes,AGUASCALIENTES,AGUASCALIENTES,AGUASCALIENTES,OPERANDO,21.89555556,-102.3086111,1888.7,9011,19512,0,28,0,0,0,8983,2001-01-01,2025-12-31,True
01031,Aguascalientes,EL NOVILLO,AGUASCALIENTES,EL LLANO,OPERANDO,22.01888889,-101.9991667,2042.6,9009,10360,0,0,0,0,0,9009,2001-01-01,2025-08-31,True
01032,Aguascalientes,LAS FRAGUAS,AGUASCALIENTES,ASIENTOS,OPERANDO,22.03916667,-101.8925,2086.0,8150,10605,0,16,0,0,0,8134,2001-01-01,2024-12-31,True
01033,Aguascalientes,LOS CONOS,AGUASCALIENTES,EL LLANO,OPERANDO,21.89777778,-101.9925,2025.9,9114,10750,0,15,0,0,0,9099,2001-01-01,2025-12-31,True
01034,Aguascalientes,SANDOVALES,AGUASCALIENTES,EL LLANO,OPERANDO,21.885,-102.1091667,2007.0,8948,10485,0,0,0,0,0,8948,2001-01-01,2025-08-31,True
01035,Aguascalientes,SAN FRANCISCO DE LOS VIVEROS,AGUASCALIENTES,EL LLANO,SUSPENDIDA,21.91194444,-102.13,2020.0,0,3961,0,0,0,0,0,0,,,False
01036,Aguascalientes,SANTA ROSA,AGUASCALIENTES,AGUASCALIENTES,SUSPENDIDA,21.81666667,-102.3,1860.0,0,1219,0,0,0,0,0,0,,,False
01041,Aguascalientes,PABELLON DE ARTEAGA (SMN),AGUASCALIENTES,PABELLÓN DE ARTEAGA,SUSPENDIDA,22.15,-102.2833333,1900.0,0,10095,0,0,0,0,0,0,,,False
01043,Aguascalientes,E.T.A. 127 AGUASCALIENTES,AGUASCALIENTES,AGUASCALIENTES,SUSPENDIDA,21.88333333,-102.3,1855.0,0,885,0,0,0,0,0,0,,,False
01045,Aguascalientes,EL TULE (DGE),AGUASCALIENTES,ASIENTOS,OPERANDO,22.08305556,-102.0911111,1981.7,8589,9739,0,19,0,0,0,8570,2001-01-01,2025-07-31,True
01046,Aguascalientes,LA LABOR (DGE),AGUASCALIENTES,CALVILLO,OPERANDO,21.96444444,-102.6972222,1784.5,8855,9756,0,91,0,0,0,8764,2001-01-01,2025-08-31,True
01047,Aguascalientes,AGUA ZARCA,AGUASCALIENTES,CALVILLO,SUSPENDIDA,21.97416667,-102.5844444,2416.8,5472,8828,0,1,0,0,0,5471,2001-01-01,2016-10-31,True
01057,Aguascalientes,VENADERO (SMN),AGUASCALIENTES,JESÚS MARÍA,SUSPENDIDA,21.8725,-102.4666667,2000.0,0,6848,0,0,0,0,0,0,,,False
01062,Aguascalientes,ARELLANO,AGUASCALIENTES,AGUASCALIENTES,OPERANDO,21.80194444,-102.2730556,1910.7,8978,10382,0,1,0,0,0,8977,2001-01-01,2025-08-31,True
01063,Aguascalientes,PEÑUELAS (SMN),AGUASCALIENTES,AGUASCALIENTES,SUSPENDIDA,21.725,-102.275,1870.0,0,6634,0,0,0,0,0,0,,,False
01073,Aguascalientes,LA TINAJA,AGUASCALIENTES,EL LLANO,OPERANDO,21.80944444,-102.1297222,2027.1,8978,9101,0,1,0,0,0,8977,2001-01-01,2025-08-31,True
01074,Aguascalientes,CIENEGUILLA,AGUASCALIENTES,AGUASCALIENTES,OPERANDO,21.73111111,-102.4527778,1838.8,8619,7724,0,5,0,0,0,8614,2001-01-01,2024-09-30,True
01075,Aguascalientes,MONTORO,AGUASCALIENTES,AGUASCALIENTES,OPERANDO,21.75722222,-102.3022222,1870.5,8948,7692,0,0,0,0,0,8948,2001-01-01,2025-08-31,True
01076,Aguascalientes,LOS NEGRITOS,AGUASCALIENTES,AGUASCALIENTES,SUSPENDIDA,21.87055556,-102.3491667,1887.1,6020,7630,0,24,0,0,0,5996,2001-01-01,2017-12-31,True
01077,Aguascalientes,EL OCOTE,AGUASCALIENTES,AGUASCALIENTES,OPERANDO,21.78277778,-102.5175,2044.6,7000,7702,0,2,0,0,0,6998,2001-01-01,2021-07-31,True
01078,Aguascalientes,EL OCOTE,AGUASCALIENTES,CALVILLO,OPERANDO,21.89027778,-102.8325,2328.9,8209,7481,0,5,0,0,0,8204,2001-01-01,2024-12-31,True
01079,Aguascalientes,PEÑUELAS (DGE),AGUASCALIENTES,AGUASCALIENTES,OPERANDO,21.72583333,-102.2722222,1900.3,9072,7631,0,1,0,0,0,9071,2001-01-01,2025-12-31,True
01080,Aguascalientes,PRESA CANUTILLO,AGUASCALIENTES,JESÚS MARÍA,OPERANDO,21.8375,-102.5222222,1949.7,9078,7773,0,0,0,0,0,9078,2001-01-01,2025-11-30,True
01081,Aguascalientes,RANCHO SECO,AGUASCALIENTES,ASIENTOS,OPERANDO,22.08833333,-101.9672222,2067.2,9009,7672,0,1,0,0,0,9008,2001-01-01,2025-08-31,True
01082,Aguascalientes,RINCON DE ROMOS,AGUASCALIENTES,RINCÓN DE ROMOS,OPERANDO,22.23111111,-102.3152778,1965.3,8527,7804,0,4,0,0,0,8523,2001-01-01,2025-08-26,True
01083,Aguascalientes,SAN FRANCISCO DE LOS ROMO (DGE),AGUASCALIENTES,SAN FRANCISCO DE LOS ROMO,OPERANDO,22.07888889,-102.2730556,1909.1,8333,7654,0,5,0,0,0,8328,2001-01-01,2025-08-31,True
01084,Aguascalientes,SAN GIL,AGUASCALIENTES,ASIENTOS,OPERANDO,22.20833333,-102.0222222,2032.2,9009,7731,0,0,0,0,0,9009,2001-01-01,2025-08-31,True
01085,Aguascalientes,TEPETATILLO,AGUASCALIENTES,ASIENTOS,OPERANDO,22.09111111,-102.1813889,2039.7,8793,7501,0,1,0,0,0,8792,2001-01-01,2025-08-31,True
01088,Aguascalientes,COSIO,AGUASCALIENTES,COSÍO,OPERANDO,22.36277778,-102.2969444,2022.7,9125,7918,0,25,0,0,0,9100,2001-01-01,2025-12-31,True
01089,Aguascalientes,PRESA 50 ANIVERSARIO,AGUASCALIENTES,SAN JOSÉ DE GRACIA,OPERANDO,22.18861111,-102.4641667,2104.3,7522,7324,0,125,0,0,0,7397,2001-01-01,2025-08-14,True
01090,Aguascalientes,JESUS MARIA (DGE),AGUASCALIENTES,JESÚS MARÍA,OPERANDO,21.96222222,-102.3505556,1880.9,8976,7858,0,2,0,0,0,8974,2001-01-01,2025-07-31,True
01091,Aguascalientes,LOS ALISOS,AGUASCALIENTES,CALVILLO,OPERANDO,21.74222222,-102.7169444,2216.0,8339,7285,0,4,0,0,0,8335,2001-01-01,2024-12-31,True
01094,Aguascalientes,EL CHAYOTE,AGUASCALIENTES,TEPEZALÁ,OPERANDO,22.28611111,-102.2358333,1951.2,8332,6946,0,7,0,0,0,8325,2001-01-01,2025-05-31,True
01095,Aguascalientes,MILPILLAS DE ARRIBA,AGUASCALIENTES,JESÚS MARÍA,OPERANDO,21.935,-102.5508333,2163.6,7922,7047,0,128,0,0,0,7794,2001-01-01,2024-10-02,True
01096,Aguascalientes,CALVILLITO,AGUASCALIENTES,AGUASCALIENTES,OPERANDO,21.83527778,-102.1825,1969.8,8932,6361,0,1,0,0,0,8931,2001-01-17,2025-06-30,True
01097,Aguascalientes,AGUASCALIENTES II,AGUASCALIENTES,AGUASCALIENTES,OPERANDO,21.90555556,-102.265,1945.5,8115,1980,0,271,0,0,0,7844,2001-01-01,2025-02-28,True
01098,Aguascalientes,LA POSTA U.A.A.,AGUASCALIENTES,JESÚS MARÍA,OPERANDO,21.9725,-102.3625,1940.9,8453,4920,0,113,0,0,0,8340,2001-01-01,2025-04-30,True
01099,Aguascalientes,JESUS TERAN (EL MUERTO),AGUASCALIENTES,EL LLANO,OPERANDO,21.97583333,-102.0619444,2044.0,8735,5768,0,1,0,0,0,8734,2001-01-01,2024-11-30,True
01101,Aguascalientes,LAS PRESAS,AGUASCALIENTES,EL LLANO,OPERANDO,21.90916667,-102.0869444,2044.6,8674,5448,0,0,0,0,0,8674,2001-01-01,2024-12-31,True
01102,Aguascalientes,PABELLON DE ARTEAGA (DGE),AGUASCALIENTES,PABELLÓN DE ARTEAGA,OPERANDO,22.14722222,-102.2791667,1929.7,9111,4060,0,30,0,0,0,9081,2001-01-01,2025-12-31,True
01103,Aguascalientes,ALAMITOS CAMPAMENTO,AGUASCALIENTES,SAN JOSÉ DE GRACIA,OPERANDO,22.1775,-102.5861111,2603.4,8793,636,0,13,0,0,0,8780,2001-01-01,2025-03-31,True
01104,Aguascalientes,ABELARDO L. RODRIGUEZ,AGUASCALIENTES,JESÚS MARÍA,SUSPENDIDA,21.91444444,-102.4286111,1970.8,4647,0,0,64,0,0,0,4583,2002-01-20,2016-11-30,True
01105,Aguascalientes,LOS CUARTOS,AGUASCALIENTES,JESÚS MARÍA,OPERANDO,21.98638889,-102.35,1901.3,7886,0,0,89,0,0,0,7797,2001-03-10,2024-12-31,True
01106,Aguascalientes,LA PRIMAVERA,AGUASCALIENTES,JESÚS MARÍA,OPERANDO,21.95861111,-102.4758333,2059.0,8322,0,0,233,0,0,0,8089,2001-01-22,2025-06-30,True
01108,Aguascalientes,ARROYO HONDO (CYCNA),AGUASCALIENTES,TEPEZALÁ,SUSPENDIDA,22.1825,-102.2077778,1999.0,4535,0,0,0,0,0,0,4535,2002-03-01,2015-01-31,True
02001,Baja_California,AGUA CALIENTE,BAJA CALIFORNIA,ENSENADA,OPERANDO,32.1075,-116.4541667,400.0,8381,11579,0,2,0,0,0,8379,2001-01-01,2024-12-31,True
02002,Baja_California,BAHIA DE LOS ANGELES,BAJA CALIFORNIA,SAN QUINTÍN,OPERANDO,28.60388889,-113.5561111,4.0,7789,16953,0,3,0,0,0,7786,2001-01-01,2024-12-31,True
02003,Baja_California,BATAQUEZ,BAJA CALIFORNIA,MEXICALI,SUSPENDIDA,32.55111111,-115.0688889,23.0,911,18453,0,22,0,0,0,889,2001-01-01,2003-06-30,True
02004,Baja_California,IGNACIO ZARAGOZA -BELEN-,BAJA CALIFORNIA,ENSENADA,OPERANDO,32.19527778,-116.4855556,540.0,6502,12306,0,338,0,0,0,6164,2001-01-01,2021-11-30,True
02005,Baja_California,BOQUILLA SANTA ROSA DE LA MISION,BAJA CALIFORNIA,ENSENADA,SUSPENDIDA,32.02166667,-116.7769444,250.0,2464,14501,0,0,0,0,0,2464,2001-01-01,2007-09-30,True
02006,Baja_California,CHAPALA,BAJA CALIFORNIA,SAN QUINTÍN,OPERANDO,29.48805556,-114.3638889,660.0,7422,16426,0,6,0,0,0,7416,2001-01-01,2021-07-30,True
02007,Baja_California,CERRO PRIETO (CFE),BAJA CALIFORNIA,MEXICALI,SUSPENDIDA,32.43805556,-115.3875,10.0,0,4404,0,0,0,0,0,0,,,False
02008,Baja_California,COLONIA GUERRERO,BAJA CALIFORNIA,SAN QUINTÍN,SUSPENDIDA,30.71666667,-115.9833333,30.0,0,16056,0,0,0,0,0,0,,,False
02009,Baja_California,COLONIA JUAREZ,BAJA CALIFORNIA,MEXICALI,SUSPENDIDA,32.29861111,-115.0161111,17.0,0,14811,0,0,0,0,0,0,,,False
02010,Baja_California,COMPOSTELA,BAJA CALIFORNIA,ENSENADA,SUSPENDIDA,31.78333333,-115.7666667,625.0,0,4256,0,0,0,0,0,0,,,False
02011,Baja_California,DELTA,BAJA CALIFORNIA,MEXICALI,OPERANDO,32.35305556,-115.1891667,12.0,7224,18039,0,157,0,0,0,7067,2001-01-01,2020-12-31,True
02012,Baja_California,EJIDO JOSE MARIA MORELOS,BAJA CALIFORNIA,SAN QUINTÍN,OPERANDO,28.3,-114.0258333,20.0,7533,10585,0,0,0,0,0,7533,2001-01-01,2025-11-11,True
02013,Baja_California,EJIDO PLAN NACIONAL AGRARIO,BAJA CALIFORNIA,ENSENADA,SUSPENDIDA,30.67,-115.1311111,420.0,0,4109,0,0,0,0,0,0,,,False
02014,Baja_California,EL ALAMO,BAJA CALIFORNIA,ENSENADA,SUSPENDIDA,31.59333333,-116.0544444,1115.0,0,16348,0,0,0,0,0,0,,,False
02015,Baja_California,EL ARCO,BAJA CALIFORNIA,SAN QUINTÍN,OPERANDO,28.02861111,-113.3963889,288.0,7660,15856,0,337,0,0,0,7323,2001-01-01,2024-12-31,True
02016,Baja_California,EL BARRIL,BAJA CALIFORNIA,SAN QUINTÍN,SUSPENDIDA,28.3025,-112.8783333,50.0,5207,15864,0,417,0,0,0,4790,2001-02-01,2017-01-31,True
02017,Baja_California,PLANTA DE BOMBEO ROSARITO,BAJA CALIFORNIA,PLAYAS DE ROSARITO,SUSPENDIDA,32.32777778,-117.0472222,72.0,1612,5963,0,12,0,0,0,1600,2011-01-01,2016-12-29,True
02019,Baja_California,EL COMPADRE,BAJA CALIFORNIA,TECATE,SUSPENDIDA,32.3375,-116.2541667,1110.0,120,5818,0,0,0,0,0,120,2019-01-01,2019-04-30,True
02020,Baja_California,EL MAYOR,BAJA CALIFORNIA,MEXICALI,OPERANDO,32.1275,-115.2780556,15.0,7840,7671,0,35,0,0,0,7805,2001-01-01,2022-12-31,True
02021,Baja_California,EL PINAL,BAJA CALIFORNIA,ENSENADA,SUSPENDIDA,32.18333333,-116.2916667,1320.0,0,9062,0,0,0,0,0,0,,,False
02022,Baja_California,EL ROSARIO,BAJA CALIFORNIA,SAN QUINTÍN,OPERANDO,30.05944444,-115.7233333,40.0,7330,12770,0,8,0,0,0,7322,2001-01-01,2022-07-31,True
02023,Baja_California,EL SOCORRO,BAJA CALIFORNIA,SAN QUINTÍN,OPERANDO,30.32055556,-115.8205556,26.0,6704,13861,0,235,0,0,0,6469,2001-01-01,2022-06-30,True
02024,Baja_California,EL TESTERAZO,BAJA CALIFORNIA,TECATE,OPERANDO,32.29638889,-116.5344444,380.0,8092,4970,0,61,0,0,0,8031,2001-01-01,2023-09-30,True
02025,Baja_California,ENSENADA (OBS),BAJA CALIFORNIA,ENSENADA,OPERANDO,31.85777778,-116.6058333,21.0,3903,3782,0,2,0,0,0,3901,2001-01-01,2023-11-30,True
02026,Baja_California,ISLA GUADALUPE (OBS),BAJA CALIFORNIA,INSULAR - SIN MUNICIPIO,SUSPENDIDA,29.02,-118.2780556,580.0,0,6053,0,0,0,0,0,0,,,False
02027,Baja_California,ISLA CEDROS,BAJA CALIFORNIA,INSULAR - SIN MUNICIPIO,SUSPENDIDA,28.135,-115.175,3.0,0,12024,0,0,0,0,0,0,,,False
02029,Baja_California,LA PROVIDENCIA,BAJA CALIFORNIA,SAN QUINTÍN,SUSPENDIDA,30.96861111,-116.1566667,40.0,1795,8727,0,9,0,0,0,1786,2001-01-01,2005-12-31,True
02030,Baja_California,LA PUERTA,BAJA CALIFORNIA,TECATE,OPERANDO,32.54388889,-116.6783333,480.0,8901,18863,0,64,0,0,0,8837,2001-01-01,2025-12-31,True
02031,Baja_California,LA RUMOROSA,BAJA CALIFORNIA,TECATE,OPERANDO,32.54861111,-116.0463889,1232.0,7112,17170,0,634,0,0,0,6478,2004-03-07,2025-03-31,True
02032,Baja_California,LAS ESCOBAS,BAJA CALIFORNIA,SAN QUINTÍN,OPERANDO,30.57944444,-115.9377778,30.0,7759,18225,0,122,0,0,0,7637,2001-01-01,2024-12-31,True
02033,Baja_California,MEXICALI (DGE),BAJA CALIFORNIA,MEXICALI,SUSPENDIDA,32.66333333,-115.4677778,3.0,0,14849,0,0,0,0,0,0,,,False
02034,Baja_California,MEXICALI (SMN),BAJA CALIFORNIA,MEXICALI,OPERANDO,32.55,-115.4666667,3.0,9131,23025,0,3,0,0,0,9128,2001-01-01,2025-12-31,True
02035,Baja_California,OJOS NEGROS,BAJA CALIFORNIA,ENSENADA,SUSPENDIDA,31.91166667,-116.2647222,680.0,0,15226,0,0,0,0,0,0,,,False
02036,Baja_California,OLIVARES MEXICANOS,BAJA CALIFORNIA,ENSENADA,OPERANDO,32.04916667,-116.6808333,340.0,7122,16158,0,301,0,0,0,6821,2005-10-19,2024-12-31,True
02037,Baja_California,PRESA MORELOS,BAJA CALIFORNIA,MEXICALI,OPERANDO,32.71527778,-114.7288889,40.0,9107,12847,0,0,0,0,0,9107,2001-01-01,2025-12-31,True
02038,Baja_California,PRESA RODRIGUEZ,BAJA CALIFORNIA,TIJUANA,OPERANDO,32.44694444,-116.9077778,120.0,9130,24551,0,2,0,0,0,9128,2001-01-01,2025-12-31,True
02039,Baja_California,PUNTA PRIETA,BAJA CALIFORNIA,SAN QUINTÍN,OPERANDO,29.15833333,-114.1458333,325.0,7030,14945,0,196,0,0,0,6834,2001-01-01,2024-08-04,True
02040,Baja_California,RANCHO ALEGRE,BAJA CALIFORNIA,SAN QUINTÍN,OPERANDO,28.22861111,-113.7552778,120.0,7324,16432,0,137,0,0,0,7187,2001-01-01,2023-09-30,True
02041,Baja_California,NUEVO ROSARITO,BAJA CALIFORNIA,SAN QUINTÍN,OPERANDO,28.63444444,-114.0172222,20.0,5784,15006,0,74,0,0,0,5710,2001-01-01,2021-09-30,True
02042,Baja_California,ROSARITO,BAJA CALIFORNIA,PLAYAS DE ROSARITO,SUSPENDIDA,32.28777778,-117.0019444,150.0,0,5428,0,0,0,0,0,0,,,False
02043,Baja_California,SAN AGUSTIN,BAJA CALIFORNIA,SAN QUINTÍN,OPERANDO,29.9375,-114.9669444,552.0,7454,15284,0,79,0,0,0,7375,2001-01-01,2023-10-01,True
02044,Baja_California,SAN BORJA,BAJA CALIFORNIA,SAN QUINTÍN,OPERANDO,28.73527778,-113.7525,445.0,7363,14836,0,2,0,0,0,7361,2001-01-01,2022-06-30,True
02045,Baja_California,SAN CARLOS,BAJA CALIFORNIA,ENSENADA,SUSPENDIDA,31.78527778,-116.4636111,164.0,3045,11129,0,120,0,0,0,2925,2001-01-01,2015-07-31,True
02046,Baja_California,SAN FELIPE,BAJA CALIFORNIA,MEXICALI,OPERANDO,31.0275,-114.8352778,10.0,7271,17529,0,11,0,0,0,7260,2001-01-01,2025-02-11,True
02047,Baja_California,SAN FERNANDO,BAJA CALIFORNIA,SAN QUINTÍN,SUSPENDIDA,29.98333333,-115.2333333,10.0,0,6473,0,0,0,0,0,0,,,False
02048,Baja_California,SAN JOSE,BAJA CALIFORNIA,SAN QUINTÍN,SUSPENDIDA,31.06666667,-115.5833333,40.0,0,4909,0,0,0,0,0,0,,,False
02049,Baja_California,SAN JUAN DE DIOS NORTE,BAJA CALIFORNIA,ENSENADA,SUSPENDIDA,32.1325,-116.165,1280.0,0,10035,0,0,0,0,0,0,,,False
02050,Baja_California,SAN JUAN DE DIOS SUR,BAJA CALIFORNIA,SAN QUINTÍN,SUSPENDIDA,30.18444444,-115.1375,600.0,0,4278,0,0,0,0,0,0,,,False
02051,Baja_California,SAN LUIS BAJA CALIFORNIA,BAJA CALIFORNIA,SAN QUINTÍN,SUSPENDIDA,29.72722222,-114.7108333,480.0,1279,9782,0,10,0,0,0,1269,2001-01-01,2012-11-30,True
02052,Baja_California,SAN LUIS GONZAGA,BAJA CALIFORNIA,ENSENADA,SUSPENDIDA,30.08333333,-114.6166667,1.0,0,2070,0,0,0,0,0,0,,,False
02053,Baja_California,SAN MIGUEL,BAJA CALIFORNIA,SAN QUINTÍN,SUSPENDIDA,28.58333333,-113.95,440.0,0,6333,0,0,0,0,0,0,,,False
02054,Baja_California,SAN RAFAEL,BAJA CALIFORNIA,SAN QUINTÍN,SUSPENDIDA,31.03333333,-115.9833333,100.0,182,5128,0,0,0,0,0,182,2020-01-01,2020-06-30,True
02055,Baja_California,SAN TELMO,BAJA CALIFORNIA,SAN QUINTÍN,OPERANDO,30.95,-116.1,60.0,2477,14008,0,77,0,0,0,2400,2011-08-01,2022-12-09,True
02056,Baja_California,SAN VICENTE,BAJA CALIFORNIA,ENSENADA,OPERANDO,31.32916667,-116.2477778,110.0,8303,18187,0,401,0,0,0,7902,2001-01-01,2023-09-30,True
02057,Baja_California,SANTA CATARINA NORTE,BAJA CALIFORNIA,ENSENADA,SUSPENDIDA,31.65722222,-115.8238889,1150.0,0,11680,0,0,0,0,0,0,,,False
02058,Baja_California,SANTA CATARINA SUR,BAJA CALIFORNIA,SAN QUINTÍN,OPERANDO,29.72194444,-115.1302778,317.0,6539,16436,0,97,0,0,0,6442,2001-01-01,2021-06-30,True
02059,Baja_California,SANTA CLARA,BAJA CALIFORNIA,MEXICALI,OPERANDO,31.08055556,-115.2861111,410.0,6751,9852,0,576,0,0,0,6175,2001-01-01,2020-12-31,True
02060,Baja_California,SANTA CRUZ,BAJA CALIFORNIA,SAN QUINTÍN,SUSPENDIDA,30.87861111,-115.6277778,980.0,1614,14323,0,9,0,0,0,1605,2001-01-01,2005-11-30,True
02061,Baja_California,SANTA GERTRUDIS,BAJA CALIFORNIA,SAN QUINTÍN,SUSPENDIDA,28.075,-113.0916667,400.0,0,10627,0,0,0,0,0,0,,,False
02062,Baja_California,SANTA ISABEL,BAJA CALIFORNIA,ENSENADA,SUSPENDIDA,31.87111111,-115.8172222,1540.0,0,3774,0,0,0,0,0,0,,,False
02063,Baja_California,SANTA MARIA DEL MAR,BAJA CALIFORNIA,SAN QUINTÍN,OPERANDO,30.40166667,-115.8883333,28.0,7232,15102,0,20,0,0,0,7212,2001-01-01,2020-12-31,True
02064,Baja_California,SANTO DOMINGO,BAJA CALIFORNIA,ENSENADA,SUSPENDIDA,31.63333333,-116.3769444,250.0,850,11910,0,73,0,0,0,777,2001-01-01,2003-04-30,True
02065,Baja_California,SANTO TOMAS,BAJA CALIFORNIA,ENSENADA,OPERANDO,31.79194444,-116.4061111,180.0,7345,19014,0,158,0,0,0,7187,2001-01-01,2022-01-31,True
02066,Baja_California,LAGUNA HANSON A. SIERRA DE JUAREZ,BAJA CALIFORNIA,ENSENADA,SUSPENDIDA,32.00361111,-115.9483333,1580.0,851,8711,0,5,0,0,0,846,2011-01-01,2013-04-29,True
02067,Baja_California,TEPIC,BAJA CALIFORNIA,ENSENADA,SUSPENDIDA,31.15833333,-115.7205556,30.0,0,4906,0,0,0,0,0,0,,,False
02068,Baja_California,TIJUANA,BAJA CALIFORNIA,TIJUANA,SUSPENDIDA,32.525,-117.0416667,20.0,0,12488,0,0,0,0,0,0,,,False
02069,Baja_California,VALLE DE LAS PALMAS,BAJA CALIFORNIA,TECATE,OPERANDO,32.37027778,-116.6536111,280.0,5218,18833,0,92,0,0,0,5126,2001-01-01,2024-11-30,True
02070,Baja_California,VALLE REDONDO,BAJA CALIFORNIA,TIJUANA,SUSPENDIDA,32.51777778,-116.7561111,242.0,366,8208,0,1,0,0,0,365,2020-01-01,2020-12-31,True
02071,Baja_California,COLONIA VALLE DE LA TRINIDAD,BAJA CALIFORNIA,ENSENADA,SUSPENDIDA,31.35583333,-115.6963889,740.0,730,13102,0,1,0,0,0,729,2018-01-01,2019-12-31,True
02072,Baja_California,PRESA EMILIO LOPEZ ZAMORA,BAJA CALIFORNIA,ENSENADA,OPERANDO,31.89583333,-115.5972222,43.0,9131,25867,0,0,0,0,0,9131,2001-01-01,2025-12-31,True
02073,Baja_California,TIJUANA (CFE),BAJA CALIFORNIA,TIJUANA,SUSPENDIDA,32.52416667,-117.0741667,25.0,0,3346,0,0,0,0,0,0,,,False
02075,Baja_California,SANTA GERTRUDIS MISION,BAJA CALIFORNIA,SAN QUINTÍN,OPERANDO,28.05055556,-113.3997222,413.0,3699,0,0,0,0,0,0,3699,2007-01-01,2025-10-31,True
02076,Baja_California,LAS PALOMAS,BAJA CALIFORNIA,SAN QUINTÍN,SUSPENDIDA,28.21833333,-113.0844444,480.0,2023,0,0,0,0,0,0,2023,2007-01-01,2013-06-30,True
02077,Baja_California,LA MISION,BAJA CALIFORNIA,ENSENADA,OPERANDO,32.10194444,-116.8111111,20.0,8766,365,0,4,0,0,0,8762,2001-01-01,2024-12-31,True
02078,Baja_California,RANCHO P. P. CUCHUMA,BAJA CALIFORNIA,TECATE,OPERANDO,32.56888889,-116.6611111,560.0,6584,0,0,28,0,0,0,6556,2007-02-20,2025-02-28,True
02079,Baja_California,EL ALAMAR,BAJA CALIFORNIA,ENSENADA,SUSPENDIDA,31.83555556,-116.2038889,710.0,4001,7118,0,5,0,0,0,3996,2001-01-01,2011-12-14,True
02084,Baja_California,EL PROGRESO,BAJA CALIFORNIA,SAN QUINTÍN,OPERANDO,29.9675,-115.1908333,517.0,6270,9238,0,224,0,0,0,6046,2001-01-01,2018-10-10,True
02085,Baja_California,SAN REGIS,BAJA CALIFORNIA,SAN QUINTÍN,SUSPENDIDA,28.59722222,-113.7547222,495.0,2007,9059,0,13,0,0,0,1994,2001-01-01,2006-06-30,True
02086,Baja_California,EJIDO JACUME,BAJA CALIFORNIA,TECATE,OPERANDO,32.59055556,-116.1916667,860.0,5503,7353,0,261,0,0,0,5242,2004-01-01,2020-06-30,True
02087,Baja_California,EJIDO DOCTOR OVIEDO MOTA,BAJA CALIFORNIA,MEXICALI,SUSPENDIDA,32.22888889,-115.1694444,8.0,0,2225,0,0,0,0,0,0,,,False
02088,Baja_California,EJIDO HEROES DE LA INDEPENDENCIA,BAJA CALIFORNIA,ENSENADA,OPERANDO,31.61027778,-115.9375,1000.0,6037,6093,0,258,0,0,0,5779,2004-06-01,2023-09-30,True
02089,Baja_California,EJIDO EMILIO LOPEZ ZAMORA,BAJA CALIFORNIA,ENSENADA,SUSPENDIDA,31.10416667,-116.1683333,180.0,0,6139,0,0,0,0,0,0,,,False
02090,Baja_California,EJIDO ERENDIRA,BAJA CALIFORNIA,ENSENADA,SUSPENDIDA,31.27527778,-116.3686111,91.0,0,5744,0,0,0,0,0,0,,,False
02091,Baja_California,EJIDO IGNACIO LOPEZ RAYON,BAJA CALIFORNIA,ENSENADA,OPERANDO,31.28777778,-116.2644444,170.0,6975,9628,0,36,0,0,0,6939,2001-01-01,2020-12-31,True
02092,Baja_California,EJIDO SAN MATIAS,BAJA CALIFORNIA,ENSENADA,OPERANDO,31.33138889,-115.5436111,968.0,7213,7952,0,192,0,0,0,7021,2001-01-01,2020-12-31,True
02093,Baja_California,EJIDO VALLE DE LA TRINIDAD,BAJA CALIFORNIA,MEXICALI,OPERANDO,32.35611111,-115.7488889,780.0,6642,9566,0,69,0,0,0,6573,2001-01-01,2023-02-01,True
02094,Baja_California,EL FARITO,BAJA CALIFORNIA,ENSENADA,SUSPENDIDA,31.98333333,-116.6666667,250.0,0,2088,0,0,0,0,0,0,,,False
02095,Baja_California,LA BOCANA DE SANTO TOMAS,BAJA CALIFORNIA,SAN QUINTÍN,SUSPENDIDA,29.86666667,-115.0,167.0,0,5193,0,0,0,0,0,0,,,False
02096,Baja_California,LA CALENTURA,BAJA CALIFORNIA,ENSENADA,OPERANDO,31.27027778,-116.0369444,210.0,7116,8937,0,388,0,0,0,6728,2001-01-01,2021-09-30,True
02097,Baja_California,LAGUNA SALADA,BAJA CALIFORNIA,MEXICALI,SUSPENDIDA,32.22388889,-115.6905556,25.0,0,4788,0,0,0,0,0,0,,,False
02099,Baja_California,RANCHO LOS ALGODONES,BAJA CALIFORNIA,ENSENADA,SUSPENDIDA,30.78138889,-115.175,460.0,0,7508,0,0,0,0,0,0,,,False
02100,Baja_California,EJIDO LEANDRO VALLE,BAJA CALIFORNIA,ENSENADA,SUSPENDIDA,31.26666667,-115.7666667,100.0,0,4076,0,0,0,0,0,0,,,False
02101,Baja_California,EL CENTINELA,BAJA CALIFORNIA,MEXICALI,OPERANDO,32.57527778,-115.7419444,50.0,2884,5464,0,136,0,0,0,2748,2001-01-01,2021-06-30,True
02102,Baja_California,LA VENTANA,BAJA CALIFORNIA,MEXICALI,SUSPENDIDA,31.43972222,-115.0536111,16.0,776,7326,0,4,0,0,0,772,2001-01-01,2003-03-31,True
02104,Baja_California,El CIPRES,BAJA CALIFORNIA,ENSENADA,SUSPENDIDA,31.79027778,-116.5880556,8.0,4632,7419,0,30,0,0,0,4602,2001-01-01,2014-10-31,True
02105,Baja_California,SAN PEDRO MARTIR (PARQUE NACIONAL),BAJA CALIFORNIA,SAN QUINTÍN,SUSPENDIDA,30.96888889,-115.5816667,2500.0,0,4593,0,0,0,0,0,0,,,False
02106,Baja_California,MANEADERO,BAJA CALIFORNIA,ENSENADA,SUSPENDIDA,31.69555556,-116.5727778,50.0,4787,6146,0,182,0,0,0,4605,2001-01-01,2016-12-31,True
02107,Baja_California,PERCEBU,BAJA CALIFORNIA,ENSENADA,OPERANDO,30.88555556,-114.7791667,4.0,6430,4143,0,793,0,0,0,5637,2001-01-01,2020-12-31,True
02108,Baja_California,PUNTA BANDA,BAJA CALIFORNIA,ENSENADA,OPERANDO,31.71388889,-116.6661111,15.0,8701,7079,0,145,0,0,0,8556,2001-01-01,2025-12-31,True
02109,Baja_California,SANTA ROSALITA,BAJA CALIFORNIA,SAN QUINTÍN,OPERANDO,28.66805556,-114.2369444,8.0,6392,6625,0,578,0,0,0,5814,2001-01-01,2020-12-31,True
02110,Baja_California,GUAYAQUIL,BAJA CALIFORNIA,SAN QUINTÍN,OPERANDO,29.96722222,-115.0969444,530.0,6268,7103,0,75,0,0,0,6193,2001-01-01,2018-03-31,True
02111,Baja_California,EJIDO NUEVO BAJA CALIFORNIA,BAJA CALIFORNIA,SAN QUINTÍN,OPERANDO,30.51722222,-115.9313889,17.0,6718,6945,0,26,0,0,0,6692,2001-01-01,2024-02-28,True
02114,Baja_California,EJIDO CARMEN SERDAN,BAJA CALIFORNIA,TECATE,OPERANDO,32.24361111,-116.5844444,560.0,6332,5823,0,74,0,0,0,6258,2001-01-01,2025-12-27,True
02118,Baja_California,VALLE DE SAN RAFAEL,BAJA CALIFORNIA,ENSENADA,OPERANDO,31.91888889,-116.2341667,721.0,7171,6323,0,235,0,0,0,6936,2001-01-01,2021-12-20,True
02119,Baja_California,CANCIO,BAJA CALIFORNIA,TIJUANA,SUSPENDIDA,32.30972222,-116.6,450.0,0,4838,0,0,0,0,0,0,,,False
02120,Baja_California,EJIDO MEXICO,BAJA CALIFORNIA,ENSENADA,OPERANDO,31.07222222,-116.2061111,75.0,7274,5128,0,33,0,0,0,7241,2001-01-01,2020-12-31,True
02121,Baja_California,EL HONGO,BAJA CALIFORNIA,TECATE,OPERANDO,32.51638889,-116.3027778,960.0,8951,7496,0,231,0,0,0,8720,2001-01-01,2025-12-31,True
02122,Baja_California,REAL DEL CASTILLO VIEJO,BAJA CALIFORNIA,ENSENADA,SUSPENDIDA,31.95138889,-116.7458333,610.0,0,3686,0,0,0,0,0,0,,,False
02124,Baja_California,EL CARRIZO II,BAJA CALIFORNIA,TECATE,OPERANDO,32.49055556,-116.6838889,300.0,9100,7340,0,12,0,0,0,9088,2001-01-01,2025-12-31,True
02131,Baja_California,EJIDO RUBEN JARAMILLO,BAJA CALIFORNIA,SAN QUINTÍN,SUSPENDIDA,30.92361111,-116.1275,60.0,0,792,0,0,0,0,0,0,,,False
02132,Baja_California,EJIDO ZARAHEMILA,BAJA CALIFORNIA,SAN QUINTÍN,SUSPENDIDA,30.69027778,-116.0063889,8.0,0,3649,0,0,0,0,0,0,,,False
02134,Baja_California,EJIDO CUERNAVACA,BAJA CALIFORNIA,MEXICALI,SUSPENDIDA,32.56166667,-115.3055556,8.0,0,2283,0,0,0,0,0,0,,,False
02136,Baja_California,AGUA HECHICERA,BAJA CALIFORNIA,TECATE,SUSPENDIDA,32.53694444,-116.62,1165.0,3050,0,0,354,0,0,0,2696,2004-01-02,2014-06-30,True
02137,Baja_California,COLONIA MARIANA,BAJA CALIFORNIA,MEXICALI,OPERANDO,32.25861111,-115.3222222,9.0,7469,6919,0,71,0,0,0,7398,2001-01-01,2023-09-30,True
02138,Baja_California,COLONIA SIETE,BAJA CALIFORNIA,MEXICALI,OPERANDO,32.53,-115.4111111,7.0,4256,4900,0,2,0,0,0,4254,2013-01-05,2024-09-30,True
02139,Baja_California,COLONIA RODRIGUEZ,BAJA CALIFORNIA,MEXICALI,OPERANDO,32.41861111,-115.0361111,17.0,7243,3330,0,4,0,0,0,7239,2001-01-01,2020-12-31,True
02140,Baja_California,COLONIA ZARAGOZA,BAJA CALIFORNIA,MEXICALI,SUSPENDIDA,32.61027778,-115.5311111,8.0,546,2066,0,0,0,0,0,546,2001-01-01,2002-06-30,True
02141,Baja_California,COMPUERTA BENASSINI,BAJA CALIFORNIA,MEXICALI,OPERANDO,32.57027778,-115.1108333,20.0,6848,5794,0,0,0,0,0,6848,2001-01-01,2020-12-31,True
02142,Baja_California,EJIDO GUADALAJARA,BAJA CALIFORNIA,MEXICALI,SUSPENDIDA,32.54777778,-114.8786111,8.0,0,1643,0,0,0,0,0,0,,,False
02143,Baja_California,EJIDO PLAN LIBERTADOR,BAJA CALIFORNIA,PLAYAS DE ROSARITO,SUSPENDIDA,32.4,-117.0,200.0,0,1032,0,0,0,0,0,0,,,False
02144,Baja_California,ENSENADA BLANCA,BAJA CALIFORNIA,SAN QUINTÍN,SUSPENDIDA,28.41055556,-113.8638889,10.0,0,3905,0,0,0,0,0,0,,,False
02145,Baja_California,RANCHO WILLIAMS,BAJA CALIFORNIA,MEXICALI,SUSPENDIDA,32.62444444,-114.8777778,29.0,4554,6648,0,62,0,0,0,4492,2001-01-01,2014-09-30,True
02146,Baja_California,COLONIA SAN PEDRO MARTIR,BAJA CALIFORNIA,ENSENADA,SUSPENDIDA,31.0375,-115.2041667,416.0,4383,5924,0,37,0,0,0,4346,2001-01-01,2012-12-31,True
02148,Baja_California,SAN FELIPE (OBS),BAJA CALIFORNIA,MEXICALI,OPERANDO,31.02916667,-114.8394444,15.0,8845,1363,0,13,0,0,0,8832,2001-01-01,2025-12-08,True
02149,Baja_California,PUERTECITOS,BAJA CALIFORNIA,ENSENADA,SUSPENDIDA,30.36722222,-114.8083333,20.0,0,1795,0,0,0,0,0,0,,,False
02150,Baja_California,PUNTA FINAL,BAJA CALIFORNIA,ENSENADA,SUSPENDIDA,29.7375,-114.31,3.0,0,3461,0,0,0,0,0,0,,,False
02151,Baja_California,AGUA DE CHALE,BAJA CALIFORNIA,ENSENADA,OPERANDO,30.63805556,-114.75,5.0,7610,5393,0,3,0,0,0,7607,2001-01-01,2024-12-31,True
02152,Baja_California,EJIDO JOSE MARIA PINO SUAREZ,BAJA CALIFORNIA,TECATE,OPERANDO,32.37277778,-116.0680556,1380.0,7425,4460,0,340,0,0,0,7085,2004-06-01,2025-04-30,True
02153,Baja_California,EJIDO URUAPAN,BAJA CALIFORNIA,ENSENADA,OPERANDO,31.61861111,-116.455,195.0,7010,6137,0,40,0,0,0,6970,2001-01-01,2022-02-02,True
02154,Baja_California,COLONIA ZACATECAS,BAJA CALIFORNIA,MEXICALI,OPERANDO,32.06027778,-115.0594444,12.0,7183,5028,0,9,0,0,0,7174,2001-01-01,2020-12-31,True
02156,Baja_California,EL FLORIDO,BAJA CALIFORNIA,ENSENADA,OPERANDO,32.47222222,-116.8211111,250.0,9131,4229,0,10,0,0,0,9121,2001-01-01,2025-12-31,True
02160,Baja_California,EJIDO JAMAU,BAJA CALIFORNIA,ENSENADA,SUSPENDIDA,31.50277778,-115.725,980.0,0,3116,0,0,0,0,0,0,,,False
02162,Baja_California,CAMALAJUE,BAJA CALIFORNIA,ENSENADA,SUSPENDIDA,29.68333333,-114.1666667,20.0,273,366,0,0,0,0,0,273,2001-01-01,2001-09-30,True
02163,Baja_California,EJIDO NUEVO LEON (OBS),BAJA CALIFORNIA,MEXICALI,OPERANDO,32.41277778,-115.1919444,11.4,8883,3216,0,7,0,0,0,8876,2001-01-01,2025-12-31,True
02164,Baja_California,EJIDO EL PORVENIR,BAJA CALIFORNIA,ENSENADA,OPERANDO,32.10638889,-115.8522222,330.0,7947,605,0,109,0,0,0,7838,2001-01-01,2024-12-31,True
02165,Baja_California,MESA DE SAN JACINTO,BAJA CALIFORNIA,SAN QUINTÍN,OPERANDO,30.88444444,-116.1236111,53.0,6725,515,0,75,0,0,0,6650,2001-01-01,2020-12-31,True
02166,Baja_California,SAN PEDRO MARTIR (OBS. ASTRON.),BAJA CALIFORNIA,ENSENADA,SUSPENDIDA,31.04416667,-115.4588889,2950.0,1826,366,0,9,0,0,0,1817,2001-01-01,2005-12-31,True
02167,Baja_California,RANCHO MELING,BAJA CALIFORNIA,SAN QUINTÍN,SUSPENDIDA,30.97305556,-115.7452778,645.0,666,30,0,8,0,0,0,658,2001-02-01,2003-12-31,True
02168,Baja_California,LOMA TOVA,BAJA CALIFORNIA,TECATE,OPERANDO,32.541028,-116.417,992.0,3515,0,0,109,0,0,0,3406,2014-10-01,2024-12-31,True
03001,Baja_California_Sur,AEROPUERTO VIEJO,BAJA CALIFORNIA SUR,LA PAZ,SUSPENDIDA,24.15,-110.2833333,20.0,0,2403,0,0,0,0,0,0,,,False
03002,Baja_California_Sur,BAHIA TORTUGAS,BAJA CALIFORNIA SUR,MULEGÉ,OPERANDO,27.68888889,-114.8972222,15.0,8403,13185,0,135,0,0,0,8268,2001-01-02,2025-09-30,True
03003,Baja_California_Sur,BOCA DEL SALADO,BAJA CALIFORNIA SUR,LOS CABOS,OPERANDO,23.28861111,-109.4377778,20.0,8827,14946,0,0,0,0,0,8827,2001-01-01,2025-11-30,True
03004,Baja_California_Sur,BUENAVISTA DE LORETO,BAJA CALIFORNIA SUR,COMONDÚ,OPERANDO,25.12083333,-111.8133333,30.0,8629,20276,0,1,0,0,0,8628,2001-01-01,2025-10-31,True
03005,Baja_California_Sur,CABO SAN LUCAS,BAJA CALIFORNIA SUR,LOS CABOS,OPERANDO,22.88194444,-109.9125,15.0,9084,19899,0,64,0,0,0,9020,2001-01-01,2025-12-31,True
03006,Baja_California_Sur,CADEGE,BAJA CALIFORNIA SUR,COMONDÚ,OPERANDO,26.37611111,-112.5125,80.0,8464,14026,0,5,0,0,0,8459,2001-01-01,2025-09-30,True
03007,Baja_California_Sur,CADUAÑO,BAJA CALIFORNIA SUR,LOS CABOS,OPERANDO,23.33194444,-109.9472222,200.0,8841,20935,0,2,0,0,0,8839,2001-01-01,2025-11-30,True
03008,Baja_California_Sur,COMONDU,BAJA CALIFORNIA SUR,COMONDÚ,OPERANDO,26.05833333,-111.825,300.0,8795,22961,0,27,0,0,0,8768,2001-01-01,2025-10-29,True
03009,Baja_California_Sur,EL AGUAJITO,BAJA CALIFORNIA SUR,LA PAZ,OPERANDO,24.83888889,-111.1272222,200.0,8851,14046,0,18,0,0,0,8833,2001-01-01,2025-10-31,True
03010,Baja_California_Sur,EL ALAMO,BAJA CALIFORNIA SUR,MULEGÉ,SUSPENDIDA,27.1,-112.9333333,81.0,61,6871,0,0,0,0,0,61,2013-06-01,2013-07-31,True
03011,Baja_California_Sur,EL CAJONCITO,BAJA CALIFORNIA SUR,LA PAZ,OPERANDO,24.14583333,-110.2055556,200.0,8675,12087,0,3,0,0,0,8672,2001-01-01,2025-04-30,True
03012,Baja_California_Sur,EL PASO DE IRITU,BAJA CALIFORNIA SUR,LA PAZ,OPERANDO,24.77972222,-111.15,140.0,8892,21897,0,3,0,0,0,8889,2001-01-01,2025-10-31,True
03013,Baja_California_Sur,EL PILAR,BAJA CALIFORNIA SUR,LA PAZ,OPERANDO,24.46972222,-111.0016667,120.0,7977,20226,0,12,0,0,0,7965,2001-01-01,2025-12-31,True
03014,Baja_California_Sur,EL MOLINO,BAJA CALIFORNIA SUR,COMONDÚ,OPERANDO,24.84027778,-111.7833333,20.0,8454,19187,0,2,0,0,0,8452,2002-03-04,2025-08-31,True
03015,Baja_California_Sur,EL ROSARIO,BAJA CALIFORNIA SUR,LA PAZ,OPERANDO,23.86111111,-110.6555556,45.0,8450,13409,0,2,0,0,0,8448,2001-01-01,2025-11-30,True
03016,Baja_California_Sur,EL ROSARITO,BAJA CALIFORNIA SUR,MULEGÉ,OPERANDO,26.76416667,-112.4186111,640.0,9008,20960,0,2,0,0,0,9006,2001-01-01,2025-12-17,True
03017,Baja_California_Sur,EL TABLON,BAJA CALIFORNIA SUR,MULEGÉ,SUSPENDIDA,27.76666667,-113.35,90.0,0,6310,0,0,0,0,0,0,,,False
03018,Baja_California_Sur,EL TRIUNFO,BAJA CALIFORNIA SUR,LA PAZ,OPERANDO,23.80222222,-110.1091667,500.0,9026,12483,0,1,0,0,0,9025,2001-01-01,2025-11-30,True
03019,Baja_California_Sur,GUADALUPE,BAJA CALIFORNIA SUR,MULEGÉ,OPERANDO,26.92222222,-112.4083333,720.0,8255,13121,0,4,0,0,0,8251,2001-01-01,2025-10-30,True
03020,Baja_California_Sur,IRAKY,BAJA CALIFORNIA SUR,LA PAZ,OPERANDO,24.82861111,-111.2188889,140.0,8777,11628,0,13,0,0,0,8764,2001-01-01,2025-10-31,True
03021,Baja_California_Sur,LA AGUJA,BAJA CALIFORNIA SUR,LA PAZ,SUSPENDIDA,23.98333333,-110.8833333,27.0,0,2070,0,0,0,0,0,0,,,False
03022,Baja_California_Sur,LA ANGOSTURA,BAJA CALIFORNIA SUR,COMONDÚ,OPERANDO,25.05333333,-111.1222222,280.0,8957,14163,0,0,0,0,0,8957,2001-01-01,2025-10-31,True
03023,Baja_California_Sur,LAGUNILLAS,BAJA CALIFORNIA SUR,LA PAZ,OPERANDO,24.02166667,-110.3552778,40.0,7837,12406,0,0,0,0,0,7837,2002-09-04,2025-03-31,True
03024,Baja_California_Sur,LA MAQUINA,BAJA CALIFORNIA SUR,LORETO,SUSPENDIDA,25.46666667,-111.1833333,340.0,0,3310,0,0,0,0,0,0,,,False
03025,Baja_California_Sur,LA PALMA,BAJA CALIFORNIA SUR,MULEGÉ,SUSPENDIDA,27.56666667,-112.6,100.0,0,2037,0,0,0,0,0,0,,,False
03026,Baja_California_Sur,LA PAZ (OBS),BAJA CALIFORNIA SUR,LA PAZ,OPERANDO,24.11666667,-110.3166667,10.0,3944,7199,0,6,0,0,0,3938,2001-01-01,2025-09-09,True
03027,Baja_California_Sur,LA POZA GRANDE,BAJA CALIFORNIA SUR,COMONDÚ,OPERANDO,25.76111111,-112.0375,25.0,8774,20683,0,44,0,0,0,8730,2001-01-01,2025-09-30,True
03028,Baja_California_Sur,LA POZA HONDA,BAJA CALIFORNIA SUR,COMONDÚ,OPERANDO,25.36805556,-111.5194444,20.0,8977,15518,0,3,0,0,0,8974,2001-01-01,2025-10-31,True
03029,Baja_California_Sur,LA PURISIMA,BAJA CALIFORNIA SUR,COMONDÚ,OPERANDO,26.18194444,-112.0777778,95.0,9004,22533,0,3,0,0,0,9001,2001-01-01,2025-10-31,True
03030,Baja_California_Sur,LA RIBERA,BAJA CALIFORNIA SUR,LOS CABOS,OPERANDO,23.59722222,-109.5861111,15.0,9059,19797,0,103,0,0,0,8956,2001-01-01,2025-12-28,True
03031,Baja_California_Sur,LA SOLEDAD NTE,BAJA CALIFORNIA SUR,LA PAZ,OPERANDO,24.8125,-110.9805556,340.0,8664,13306,0,0,0,0,0,8664,2001-01-01,2025-10-31,True
03032,Baja_California_Sur,LAS BARRACAS,BAJA CALIFORNIA SUR,LOS CABOS,OPERANDO,23.47222222,-109.4527778,12.0,8237,10917,0,4,0,0,0,8233,2001-01-01,2025-11-30,True
03033,Baja_California_Sur,LAS CRUCES,BAJA CALIFORNIA SUR,COMONDÚ,OPERANDO,25.39722222,-111.755,40.0,8721,16410,0,5,0,0,0,8716,2001-01-01,2025-09-30,True
03034,Baja_California_Sur,LAS LAGUNAS,BAJA CALIFORNIA SUR,MULEGÉ,SUSPENDIDA,27.6,-113.5666667,20.0,0,10476,0,0,0,0,0,0,,,False
03035,Baja_California_Sur,LORETO (DGE),BAJA CALIFORNIA SUR,LORETO,OPERANDO,26.01277778,-111.3433333,20.0,9128,21620,0,13,0,0,0,9115,2001-01-01,2025-12-31,True
03036,Baja_California_Sur,LOS DIVISADEROS,BAJA CALIFORNIA SUR,LA PAZ,OPERANDO,23.89305556,-110.1430556,490.0,8555,20595,0,0,0,0,0,8555,2001-01-01,2025-11-30,True
03037,Baja_California_Sur,SAN JUAN DE LOS PLANES,BAJA CALIFORNIA SUR,LA PAZ,OPERANDO,23.96805556,-109.9361111,20.0,9101,15464,0,37,0,0,0,9064,2001-01-01,2025-12-31,True
03038,Baja_California_Sur,MULEGE,BAJA CALIFORNIA SUR,MULEGÉ,OPERANDO,26.88888889,-111.9844444,10.0,8926,26321,0,36,0,0,0,8890,2001-01-01,2025-12-31,True
03039,Baja_California_Sur,OJO DE AGUA,BAJA CALIFORNIA SUR,COMONDÚ,SUSPENDIDA,26.32416667,-111.9847222,180.0,5872,18312,0,0,0,0,0,5872,2001-01-01,2017-03-31,True
03040,Baja_California_Sur,EL CIRUELITO,BAJA CALIFORNIA SUR,LA PAZ,OPERANDO,23.87805556,-110.1130556,620.0,3872,0,0,0,0,0,0,3872,2013-01-01,2025-11-30,True
03041,Baja_California_Sur,PATROCINIO,BAJA CALIFORNIA SUR,MULEGÉ,OPERANDO,26.82083333,-112.7972222,249.0,8929,13481,0,3,0,0,0,8926,2001-01-01,2025-10-31,True
03042,Baja_California_Sur,LAS POCITAS,BAJA CALIFORNIA SUR,LA PAZ,OPERANDO,24.39166667,-111.1083333,50.0,8605,16827,0,2,0,0,0,8603,2001-01-01,2025-10-31,True
03043,Baja_California_Sur,PUERTO ADOLFO LOPEZ MATEOS,BAJA CALIFORNIA SUR,COMONDÚ,OPERANDO,25.19527778,-112.1111111,10.0,8892,11537,0,13,0,0,0,8879,2001-01-01,2025-09-30,True
03044,Baja_California_Sur,SAN LUCAS,BAJA CALIFORNIA SUR,MULEGÉ,OPERANDO,27.22138889,-112.2205556,6.0,4401,0,0,0,0,0,0,4401,2013-10-05,2025-10-31,True
03045,Baja_California_Sur,PUERTO SAN CARLOS,BAJA CALIFORNIA SUR,COMONDÚ,OPERANDO,24.79166667,-112.1111111,10.0,8861,11344,0,49,0,0,0,8812,2001-01-01,2025-09-29,True
03046,Baja_California_Sur,PUERTO CORTES (OBS),BAJA CALIFORNIA SUR,COMONDÚ,SUSPENDIDA,24.47805556,-111.8222222,6.0,119,6829,0,0,0,0,0,119,2001-01-01,2001-06-30,True
03047,Baja_California_Sur,PUNTA ABREOJOS,BAJA CALIFORNIA SUR,MULEGÉ,OPERANDO,26.71555556,-113.5741667,20.0,8783,15526,0,13,0,0,0,8770,2001-01-01,2025-10-31,True
03048,Baja_California_Sur,BOCA DE LA SIERRA,BAJA CALIFORNIA SUR,LOS CABOS,OPERANDO,23.38527778,-109.8169444,467.0,2864,0,0,1,0,0,0,2863,2016-04-01,2025-11-30,True
03049,Baja_California_Sur,SAN ANTONIO SUR,BAJA CALIFORNIA SUR,LA PAZ,OPERANDO,23.80694444,-110.0583333,400.0,9105,17517,0,22,0,0,0,9083,2001-01-01,2025-12-31,True
03050,Baja_California_Sur,SAN BARTOLO,BAJA CALIFORNIA SUR,LA PAZ,OPERANDO,23.74166667,-109.8402778,395.0,9037,21377,0,34,0,0,0,9003,2001-01-01,2025-12-31,True
03051,Baja_California_Sur,SAN FELIPE,BAJA CALIFORNIA SUR,LOS CABOS,OPERANDO,23.10833333,-109.8541667,380.0,8848,21727,0,3,0,0,0,8845,2001-01-01,2025-11-30,True
03052,Baja_California_Sur,SAN IGNACIO,BAJA CALIFORNIA SUR,MULEGÉ,OPERANDO,27.29861111,-112.875,150.0,8747,20927,0,12,0,0,0,8735,2001-01-01,2025-09-30,True
03053,Baja_California_Sur,SAN JACINTO,BAJA CALIFORNIA SUR,LA PAZ,OPERANDO,23.2375,-110.0680556,95.0,8462,17103,0,2,0,0,0,8460,2001-01-01,2025-11-30,True
03054,Baja_California_Sur,SAN JAVIER,BAJA CALIFORNIA SUR,LORETO,OPERANDO,25.86527778,-111.5444444,200.0,8874,15801,0,0,0,0,0,8874,2001-01-01,2025-09-30,True
03055,Baja_California_Sur,SAN JOSE DE GRACIA,BAJA CALIFORNIA SUR,MULEGÉ,OPERANDO,26.58888889,-112.7222222,140.0,8255,16449,0,1,0,0,0,8254,2001-01-01,2025-03-31,True
03056,Baja_California_Sur,SAN JOSE DEL CABO,BAJA CALIFORNIA SUR,LOS CABOS,OPERANDO,23.06944444,-109.7069444,10.0,8318,23428,0,65,0,0,0,8253,2001-01-03,2025-12-31,True
03057,Baja_California_Sur,SAN JUANICO,BAJA CALIFORNIA SUR,COMONDÚ,OPERANDO,26.25694444,-112.4827778,20.0,8665,13554,0,5,0,0,0,8660,2001-01-01,2025-04-30,True
03058,Baja_California_Sur,SAN PEDRO,BAJA CALIFORNIA SUR,LA PAZ,OPERANDO,23.925,-110.2638889,190.0,8236,19995,0,4,0,0,0,8232,2001-01-01,2025-11-30,True
03060,Baja_California_Sur,SANTA GERTRUDIS,BAJA CALIFORNIA SUR,LA PAZ,OPERANDO,23.53333333,-110.0744444,520.0,8916,21651,0,5,0,0,0,8911,2001-01-01,2025-11-30,True
03061,Baja_California_Sur,SANTA ROSALIA (DGE),BAJA CALIFORNIA SUR,MULEGÉ,OPERANDO,27.33888889,-112.2697222,10.0,8928,23911,0,31,0,0,0,8897,2001-01-08,2025-12-31,True
03062,Baja_California_Sur,SANTIAGO,BAJA CALIFORNIA SUR,LOS CABOS,OPERANDO,23.48222222,-109.7183333,132.0,8980,22598,0,14,0,0,0,8966,2001-01-01,2025-12-31,True
03063,Baja_California_Sur,SANTO DOMINGO,BAJA CALIFORNIA SUR,COMONDÚ,OPERANDO,25.49027778,-111.9152778,18.0,8759,16102,0,2,0,0,0,8757,2001-01-01,2025-03-31,True
03064,Baja_California_Sur,SIERRA DE LA LAGUNA,BAJA CALIFORNIA SUR,LA PAZ,SUSPENDIDA,23.54861111,-110.0958333,85.0,0,5823,0,0,0,0,0,0,,,False
03065,Baja_California_Sur,TEPENTU,BAJA CALIFORNIA SUR,COMONDÚ,OPERANDO,25.09166667,-111.3255556,180.0,8850,14029,0,0,0,0,0,8850,2001-01-01,2025-03-31,True
03066,Baja_California_Sur,TODOS SANTOS (DGE),BAJA CALIFORNIA SUR,LA PAZ,OPERANDO,23.44861111,-110.2233333,10.0,8807,21589,0,69,0,0,0,8738,2001-01-01,2025-12-30,True
03067,Baja_California_Sur,YENEKA,BAJA CALIFORNIA SUR,LOS CABOS,OPERANDO,23.27083333,-109.7791667,160.0,7968,13100,0,13,0,0,0,7955,2001-01-01,2025-02-26,True
03068,Baja_California_Sur,VILLA CONSTITUCION,BAJA CALIFORNIA SUR,COMONDÚ,OPERANDO,25.03222222,-111.6702778,50.0,9015,15492,0,41,0,0,0,8974,2001-01-01,2025-12-31,True
03069,Baja_California_Sur,VILLA INSURGENTES,BAJA CALIFORNIA SUR,COMONDÚ,OPERANDO,25.26166667,-111.7744444,30.0,8700,9780,0,32,0,0,0,8668,2001-03-13,2025-10-31,True
03070,Baja_California_Sur,VIZCAINO,BAJA CALIFORNIA SUR,MULEGÉ,SUSPENDIDA,27.57166667,-113.5711111,45.0,0,3544,0,0,0,0,0,0,,,False
03072,Baja_California_Sur,EL COYOTE,BAJA CALIFORNIA SUR,MULEGÉ,SUSPENDIDA,26.77361111,-111.9097222,6.0,0,7812,0,0,0,0,0,0,,,False
03073,Baja_California_Sur,GUSTAVO DIAZ ORDAZ,BAJA CALIFORNIA SUR,MULEGÉ,OPERANDO,27.64722222,-113.4430556,80.0,9045,10584,0,25,0,0,0,9020,2001-01-01,2025-12-30,True
03074,Baja_California_Sur,LA PAZ (DGE),BAJA CALIFORNIA SUR,LA PAZ,OPERANDO,24.13472222,-110.3361111,16.0,9129,21037,0,14,0,0,0,9115,2001-01-01,2025-12-31,True
03075,Baja_California_Sur,SAN PEDRO DE LA PRESA,BAJA CALIFORNIA SUR,LA PAZ,OPERANDO,24.84444444,-110.9736111,240.0,8832,9734,0,12,0,0,0,8820,2001-01-01,2025-10-30,True
03076,Baja_California_Sur,TODOS SANTOS (SMN),BAJA CALIFORNIA SUR,LA PAZ,SUSPENDIDA,23.40638889,-110.2016667,40.0,0,7490,0,0,0,0,0,0,,,False
03077,Baja_California_Sur,EL CARRIZAL,BAJA CALIFORNIA SUR,LA PAZ,OPERANDO,23.75555556,-110.2705556,222.0,8255,13731,0,11,0,0,0,8244,2001-01-01,2025-04-30,True
03093,Baja_California_Sur,SAN BRUNO,BAJA CALIFORNIA SUR,MULEGÉ,OPERANDO,27.15416667,-112.1527778,20.0,8717,7476,0,0,0,0,0,8717,2001-01-01,2025-03-31,True
03094,Baja_California_Sur,SANTA ANITA,BAJA CALIFORNIA SUR,LOS CABOS,OPERANDO,23.17833333,-109.7016667,80.0,8380,9742,0,13,0,0,0,8367,2001-01-01,2025-03-31,True
03095,Baja_California_Sur,E.T.A. 184 VILLA INSURGENTES,BAJA CALIFORNIA SUR,COMONDÚ,SUSPENDIDA,25.26388889,-111.7763889,35.0,0,2753,0,0,0,0,0,0,,,False
03096,Baja_California_Sur,LAS CUEVAS,BAJA CALIFORNIA SUR,LOS CABOS,OPERANDO,23.53888889,-109.6763889,80.0,8829,9313,0,30,0,0,0,8799,2001-01-01,2025-09-30,True
03097,Baja_California_Sur,EL PESCADERO,BAJA CALIFORNIA SUR,LA PAZ,OPERANDO,23.36388889,-110.1652778,60.0,8858,9340,0,1,0,0,0,8857,2001-01-01,2025-04-30,True
03098,Baja_California_Sur,LOS DOLORES,BAJA CALIFORNIA SUR,MULEGÉ,OPERANDO,26.52666667,-112.6533333,120.0,8058,5044,0,5,0,0,0,8053,2001-01-01,2025-03-31,True
03099,Baja_California_Sur,SAN JUAN LONDO,BAJA CALIFORNIA SUR,LORETO,OPERANDO,26.22472222,-111.475,40.0,8225,8829,0,7,0,0,0,8218,2001-01-01,2024-12-31,True
03100,Baja_California_Sur,SAN ZACARIAS,BAJA CALIFORNIA SUR,MULEGÉ,OPERANDO,27.1375,-112.9055556,90.0,8427,9326,0,1,0,0,0,8426,2001-01-01,2025-06-30,True
03101,Baja_California_Sur,VILLA MORELOS,BAJA CALIFORNIA SUR,COMONDÚ,OPERANDO,24.93,-111.6283333,57.0,8957,9272,0,2,0,0,0,8955,2001-01-01,2025-09-30,True
03102,Baja_California_Sur,EMILIANO ZAPATA,BAJA CALIFORNIA SUR,MULEGÉ,OPERANDO,27.54861111,-113.3888889,60.0,8421,8804,0,1,0,0,0,8420,2001-01-01,2025-03-31,True
03103,Baja_California_Sur,SAN JOSE DE MAGDALENA,BAJA CALIFORNIA SUR,MULEGÉ,OPERANDO,27.06111111,-112.2388889,230.0,8601,9397,0,14,0,0,0,8587,2001-01-01,2025-06-29,True
03104,Baja_California_Sur,LOS ROBLES,BAJA CALIFORNIA SUR,LA PAZ,OPERANDO,24.03611111,-110.125,665.0,8320,8671,0,4,0,0,0,8316,2001-01-01,2025-04-30,True
03105,Baja_California_Sur,SAN IGNACIO DE LOS ROMERO,BAJA CALIFORNIA SUR,COMONDÚ,OPERANDO,25.5875,-111.6402778,140.0,9037,8186,0,1,0,0,0,9036,2001-01-01,2025-10-31,True
03106,Baja_California_Sur,SAN JOSE DEL PACIFICO,BAJA CALIFORNIA SUR,MULEGÉ,SUSPENDIDA,27.5375,-114.4722222,380.0,0,4390,0,0,0,0,0,0,,,False
03107,Baja_California_Sur,SANTA AGUEDA,BAJA CALIFORNIA SUR,MULEGÉ,OPERANDO,27.26,-112.3508333,220.0,8613,8516,0,3,0,0,0,8610,2001-01-01,2025-09-30,True
03108,Baja_California_Sur,HUATAMOTE,BAJA CALIFORNIA SUR,LORETO,OPERANDO,25.59722222,-111.3361111,342.0,8945,8671,0,1,0,0,0,8944,2001-01-01,2025-10-31,True
03109,Baja_California_Sur,LA POZA DE LEON,BAJA CALIFORNIA SUR,COMONDÚ,OPERANDO,25.3625,-111.1722222,360.0,8705,8182,0,5,0,0,0,8700,2001-01-01,2025-10-30,True
03110,Baja_California_Sur,ALFREDO V. BONFIL,BAJA CALIFORNIA SUR,LA PAZ,OPERANDO,24.14861111,-110.5677778,70.0,8860,8394,0,9,0,0,0,8851,2001-01-01,2025-10-31,True
03112,Baja_California_Sur,EL CARDON,BAJA CALIFORNIA SUR,MULEGÉ,SUSPENDIDA,26.79805556,-113.1511111,4.0,0,1917,0,0,0,0,0,0,,,False
03113,Baja_California_Sur,EL CONEJO,BAJA CALIFORNIA SUR,LA PAZ,SUSPENDIDA,24.07361111,-110.9972222,12.0,0,651,0,0,0,0,0,0,,,False
03114,Baja_California_Sur,ENSENADA DE MUERTOS,BAJA CALIFORNIA SUR,LA PAZ,SUSPENDIDA,23.99694444,-109.8266667,10.0,0,571,0,0,0,0,0,0,,,False
03115,Baja_California_Sur,LOS LAURELES,BAJA CALIFORNIA SUR,MULEGÉ,SUSPENDIDA,27.6,-113.55,70.0,0,2748,0,0,0,0,0,0,,,False
03116,Baja_California_Sur,LOS CERRITOS,BAJA CALIFORNIA SUR,COMONDÚ,OPERANDO,25.18888889,-111.4111111,130.0,8944,8322,0,0,0,0,0,8944,2001-01-01,2025-10-31,True
03117,Baja_California_Sur,BAHIA ASUNCION,BAJA CALIFORNIA SUR,MULEGÉ,OPERANDO,27.1425,-114.3,10.0,8050,6424,0,3,0,0,0,8047,2001-01-01,2025-09-30,True
03119,Baja_California_Sur,BENITO JUAREZ,BAJA CALIFORNIA SUR,MULEGÉ,OPERANDO,27.88472222,-113.7777778,55.0,8878,7523,0,1,0,0,0,8877,2001-01-01,2025-09-30,True
03120,Baja_California_Sur,COLONIA PLUTARCO ELIAS CALLES,BAJA CALIFORNIA SUR,LA PAZ,OPERANDO,23.22083333,-110.1444444,10.0,8571,6144,0,8,0,0,0,8563,2001-01-01,2025-04-30,True
03121,Baja_California_Sur,EL DATIL,BAJA CALIFORNIA SUR,MULEGÉ,OPERANDO,26.885,-112.6161111,440.0,8720,6980,0,9,0,0,0,8711,2001-01-01,2025-11-12,True
03122,Baja_California_Sur,GUILLERMO PRIETO,BAJA CALIFORNIA SUR,MULEGÉ,OPERANDO,27.83888889,-113.3208333,200.0,8480,6946,0,4,0,0,0,8476,2001-01-01,2025-10-31,True
03123,Baja_California_Sur,PUNTA EUGENIA,BAJA CALIFORNIA SUR,MULEGÉ,OPERANDO,27.84694444,-115.0813889,10.0,7808,6941,0,18,0,0,0,7790,2001-01-01,2025-03-31,True
03124,Baja_California_Sur,RAMADITAS,BAJA CALIFORNIA SUR,COMONDÚ,OPERANDO,25.12222222,-111.9541667,30.0,8928,7246,0,1,0,0,0,8927,2001-01-01,2025-09-30,True
03125,Baja_California_Sur,SAN AGUSTIN,BAJA CALIFORNIA SUR,LA PAZ,SUSPENDIDA,24.15833333,-110.9236111,100.0,0,3784,0,0,0,0,0,0,,,False
03126,Baja_California_Sur,SAN ANTONIO DE LA SIERRA,BAJA CALIFORNIA SUR,COMONDÚ,OPERANDO,26.52083333,-112.5041667,160.0,8571,7151,0,5,0,0,0,8566,2001-01-01,2025-03-31,True
03128,Baja_California_Sur,SAN LUIS GONZAGA,BAJA CALIFORNIA SUR,COMONDÚ,OPERANDO,24.9075,-111.2905556,160.0,8723,6932,0,2,0,0,0,8721,2001-01-01,2025-03-31,True
03129,Baja_California_Sur,SAN NICOLAS,BAJA CALIFORNIA SUR,LORETO,OPERANDO,26.54333333,-111.5491667,15.0,9000,7667,0,3,0,0,0,8997,2001-01-01,2025-09-30,True
03130,Baja_California_Sur,SAN RAMON,BAJA CALIFORNIA SUR,COMONDÚ,OPERANDO,25.27916667,-111.2852778,230.0,8568,7428,0,1,0,0,0,8567,2001-01-01,2025-03-31,True
03131,Baja_California_Sur,SANTA FE,BAJA CALIFORNIA SUR,LA PAZ,OPERANDO,24.30416667,-111.2125,10.0,8612,6796,0,6,0,0,0,8606,2001-01-01,2025-02-28,True
03132,Baja_California_Sur,CIUDAD CONSTITUCION (OBS),BAJA CALIFORNIA SUR,COMONDÚ,OPERANDO,25.00972222,-111.6466667,48.3,5426,6962,0,2,0,0,0,5424,2001-01-01,2023-09-30,True
03133,Baja_California_Sur,SAN ANTONIO NORTE,BAJA CALIFORNIA SUR,LORETO,OPERANDO,26.14166667,-111.4555556,100.0,8239,6251,0,4,0,0,0,8235,2001-01-01,2025-10-04,True
03134,Baja_California_Sur,LOS CANTILITOS,BAJA CALIFORNIA SUR,LA PAZ,OPERANDO,24.59388889,-110.9916667,160.0,8465,8036,0,1,0,0,0,8464,2001-01-01,2025-03-31,True
03135,Baja_California_Sur,LA CANDELARIA,BAJA CALIFORNIA SUR,LOS CABOS,OPERANDO,23.075,-110.0258333,195.0,8741,7904,0,1,0,0,0,8740,2001-01-01,2024-12-31,True
03136,Baja_California_Sur,LOS FILOS,BAJA CALIFORNIA SUR,LA PAZ,SUSPENDIDA,23.96666667,-110.4666667,169.0,0,884,0,0,0,0,0,0,,,False
03137,Baja_California_Sur,LA SOLEDAD SUR,BAJA CALIFORNIA SUR,LA PAZ,OPERANDO,23.14333333,-110.0011111,400.0,8125,7971,0,1,0,0,0,8124,2001-01-01,2025-04-30,True
03138,Baja_California_Sur,LIGUI,BAJA CALIFORNIA SUR,LORETO,OPERANDO,25.73472222,-111.2694444,10.0,8625,7927,0,8,0,0,0,8617,2001-01-01,2025-03-31,True
03139,Baja_California_Sur,C.E.F. LA PAZ,BAJA CALIFORNIA SUR,LA PAZ,SUSPENDIDA,23.38333333,-110.15,92.0,0,6355,0,0,0,0,0,0,,,False
03140,Baja_California_Sur,SAN JUAN DE LA COSTA,BAJA CALIFORNIA SUR,LA PAZ,SUSPENDIDA,24.375,-110.6916667,30.0,0,1717,0,0,0,0,0,0,,,False
03141,Baja_California_Sur,SAN LUCAS NORTE,BAJA CALIFORNIA SUR,COMONDÚ,OPERANDO,25.61388889,-111.7461111,200.0,8654,7616,0,4,0,0,0,8650,2001-01-01,2025-09-30,True
03143,Baja_California_Sur,LAS PALMAS,BAJA CALIFORNIA SUR,LA PAZ,OPERANDO,23.68055556,-109.6972222,15.0,9095,8200,0,17,0,0,0,9078,2001-01-01,2025-12-31,True
03144,Baja_California_Sur,MANGLE,BAJA CALIFORNIA SUR,LOS CABOS,OPERANDO,23.34583333,-109.6458333,285.0,8454,7500,0,3,0,0,0,8451,2001-01-01,2025-04-30,True
03146,Baja_California_Sur,SANTA RITA,BAJA CALIFORNIA SUR,LA PAZ,OPERANDO,24.59027778,-111.4638889,45.0,8590,8063,0,0,0,0,0,8590,2001-01-01,2025-03-31,True
03147,Baja_California_Sur,AGUAJITO,BAJA CALIFORNIA SUR,COMONDÚ,SUSPENDIDA,26.2,-112.15,180.0,0,3875,0,0,0,0,0,0,,,False
03148,Baja_California_Sur,EL MEZQUITAL,BAJA CALIFORNIA SUR,MULEGÉ,OPERANDO,27.41111111,-112.5777778,450.0,8456,7796,0,4,0,0,0,8452,2001-01-01,2024-12-31,True
03149,Baja_California_Sur,SAN ISIDRO,BAJA CALIFORNIA SUR,LA PAZ,SUSPENDIDA,23.65,-110.2916667,120.0,0,1676,0,0,0,0,0,0,,,False
03150,Baja_California_Sur,TIGUANA,BAJA CALIFORNIA SUR,COMONDÚ,SUSPENDIDA,25.20833333,-111.1263889,290.0,0,6878,0,0,0,0,0,0,,,False
03151,Baja_California_Sur,PICHILINGUE,BAJA CALIFORNIA SUR,LA PAZ,SUSPENDIDA,24.26944444,-110.3208333,12.0,0,2890,0,0,0,0,0,0,,,False
03154,Baja_California_Sur,LEY FEDERAL DE AGUAS 5,BAJA CALIFORNIA SUR,COMONDÚ,OPERANDO,25.09444444,-111.5083333,85.0,8562,6880,0,3,0,0,0,8559,2001-01-01,2025-10-31,True
03155,Baja_California_Sur,SAN RAYMUNDO,BAJA CALIFORNIA SUR,COMONDÚ,OPERANDO,26.38055556,-112.5986111,40.0,8583,6669,0,12,0,0,0,8571,2001-01-01,2025-10-31,True
03156,Baja_California_Sur,SAN MIGUEL,BAJA CALIFORNIA SUR,MULEGÉ,OPERANDO,26.72083333,-112.3055556,400.0,8885,7271,0,2,0,0,0,8883,2001-01-01,2025-10-31,True
03158,Baja_California_Sur,SAN MARTIN,BAJA CALIFORNIA SUR,MULEGÉ,OPERANDO,26.62916667,-112.3327778,350.0,8365,5770,0,7,0,0,0,8358,2001-02-01,2025-10-31,True
03162,Baja_California_Sur,LAS BARRANCAS,BAJA CALIFORNIA SUR,COMONDÚ,SUSPENDIDA,26.0025,-112.1977778,13.0,0,964,0,0,0,0,0,0,,,False
03163,Baja_California_Sur,AGUA CALIENTE,BAJA CALIFORNIA SUR,LOS CABOS,OPERANDO,23.44111111,-109.7944444,195.0,8479,5914,0,1,0,0,0,8478,2001-01-03,2024-12-31,True
03165,Baja_California_Sur,JUNTA DE LOS ARROYOS,BAJA CALIFORNIA SUR,LA PAZ,SUSPENDIDA,23.66527778,-110.075,500.0,0,2433,0,0,0,0,0,0,,,False
03166,Baja_California_Sur,PABELLON,BAJA CALIFORNIA SUR,COMONDÚ,OPERANDO,25.95916667,-112.0819444,40.0,8849,6911,0,6,0,0,0,8843,2001-01-01,2025-09-25,True
03167,Baja_California_Sur,EL SARGENTO,BAJA CALIFORNIA SUR,LA PAZ,OPERANDO,24.08027778,-109.9944444,20.0,9042,6242,0,37,0,0,0,9005,2001-01-01,2025-12-31,True
03168,Baja_California_Sur,LORETO (OBS),BAJA CALIFORNIA SUR,LORETO,OPERANDO,26.01666667,-111.3472222,6.8,5208,7826,0,3,0,0,0,5205,2001-01-01,2025-04-10,True
03169,Baja_California_Sur,SANTA ROSALIA (OBS),BAJA CALIFORNIA SUR,MULEGÉ,OPERANDO,27.28333333,-112.25,82.0,2590,13819,0,30,0,0,0,2560,2001-01-01,2025-09-28,True
03172,Baja_California_Sur,GUAJADEMI,BAJA CALIFORNIA SUR,COMONDÚ,OPERANDO,26.34861111,-112.1708333,195.0,8621,5747,0,37,0,0,0,8584,2001-01-01,2025-10-31,True
03173,Baja_California_Sur,SAN PEDRITO (CFE),BAJA CALIFORNIA SUR,COMONDÚ,SUSPENDIDA,24.9,-111.25,170.0,0,6575,0,0,0,0,0,0,,,False
03174,Baja_California_Sur,GUERRERO NEGRO,BAJA CALIFORNIA SUR,MULEGÉ,OPERANDO,27.96805556,-114.0458333,10.0,8927,5890,0,16,0,0,0,8911,2001-01-01,2025-12-31,True
03175,Baja_California_Sur,LA MUELA,BAJA CALIFORNIA SUR,LA PAZ,OPERANDO,23.58194444,-110.2208333,140.0,8768,3502,0,1,0,0,0,8767,2001-01-01,2025-04-30,True
03176,Baja_California_Sur,LA FORTUNA,BAJA CALIFORNIA SUR,LA PAZ,OPERANDO,24.65138889,-111.2152778,130.0,8127,3653,0,0,0,0,0,8127,2001-01-01,2025-03-31,True
03177,Baja_California_Sur,VALLE PERDIDO,BAJA CALIFORNIA SUR,LA PAZ,OPERANDO,23.69583333,-110.1194444,400.0,9081,3653,0,0,0,0,0,9081,2001-01-01,2025-11-30,True
03178,Baja_California_Sur,SANTA INES,BAJA CALIFORNIA SUR,LA PAZ,OPERANDO,23.54222222,-110.1491667,300.0,8979,2948,0,0,0,0,0,8979,2001-01-01,2025-11-27,True
03179,Baja_California_Sur,LEY FEDERAL DE AGUAS 4,BAJA CALIFORNIA SUR,COMONDÚ,OPERANDO,25.20138889,-111.5597222,75.0,8920,2522,0,2,0,0,0,8918,2001-01-01,2025-10-31,True
03180,Baja_California_Sur,LEY FEDERAL DE AGUAS 1,BAJA CALIFORNIA SUR,COMONDÚ,OPERANDO,25.33555556,-111.6391667,55.0,8500,3432,0,3,0,0,0,8497,2001-01-01,2025-10-31,True
03181,Baja_California_Sur,LA NUEVA CALIFORNIA,BAJA CALIFORNIA SUR,LOS CABOS,SUSPENDIDA,23.43333333,-109.7833333,195.0,0,1339,0,0,0,0,0,0,,,False
03182,Baja_California_Sur,EL CRUCERO,BAJA CALIFORNIA SUR,LA PAZ,OPERANDO,23.43888889,-110.0694444,520.0,8053,3473,0,0,0,0,0,8053,2001-03-01,2023-12-31,True
03183,Baja_California_Sur,SAN VICENTE DE LA SIERRA,BAJA CALIFORNIA SUR,LA PAZ,OPERANDO,23.17222222,-109.9861111,650.0,8808,3515,0,0,0,0,0,8808,2001-01-01,2025-10-31,True
03184,Baja_California_Sur,JOSEFA ORTIZ DE DOMINGUEZ,BAJA CALIFORNIA SUR,COMONDÚ,OPERANDO,25.00055556,-111.8338889,30.0,8478,2684,0,10,0,0,0,8468,2001-01-01,2025-10-31,True
03185,Baja_California_Sur,SANTA MARTHA,BAJA CALIFORNIA SUR,MULEGÉ,OPERANDO,27.54861111,-112.975,700.0,9007,2887,0,2,0,0,0,9005,2001-01-01,2025-10-31,True
03186,Baja_California_Sur,AGUA DE SAN ANTONIO,BAJA CALIFORNIA SUR,LA PAZ,OPERANDO,23.69027778,-109.9444444,840.0,8252,275,0,0,0,0,0,8252,2002-01-01,2025-11-30,True
03187,Baja_California_Sur,EL IHUAJIL,BAJA CALIFORNIA SUR,COMONDÚ,OPERANDO,24.99166667,-111.4,105.0,8377,783,0,0,0,0,0,8377,2001-01-01,2024-01-12,True
03188,Baja_California_Sur,SAN JAVIER SUR,BAJA CALIFORNIA SUR,LOS CABOS,OPERANDO,22.99666667,-109.8452778,220.0,8308,661,0,15,0,0,0,8293,2001-01-01,2025-11-22,True
03189,Baja_California_Sur,EL SAUZAL,BAJA CALIFORNIA SUR,LOS CABOS,OPERANDO,23.05305556,-109.915,420.0,8597,609,0,6,0,0,0,8591,2001-01-07,2025-11-30,True
03190,Baja_California_Sur,SAN LAZARO,BAJA CALIFORNIA SUR,LOS CABOS,SUSPENDIDA,23.59138889,-109.6791667,79.0,4254,0,0,0,0,0,0,4254,2002-01-01,2014-12-19,True
03191,Baja_California_Sur,SAN FRANCISCO DE LA SIERRA,BAJA CALIFORNIA SUR,MULEGÉ,OPERANDO,27.59833333,-113.0319444,1080.0,6009,0,0,18,0,0,0,5991,2006-07-01,2025-10-31,True
03194,Baja_California_Sur,BUENAVISTA SUR,BAJA CALIFORNIA SUR,LA PAZ,OPERANDO,23.98055556,-110.15,400.0,8960,92,0,3,0,0,0,8957,2001-01-01,2025-09-30,True
03195,Baja_California_Sur,QUEMADO,BAJA CALIFORNIA SUR,LA PAZ,OPERANDO,24.05222222,-110.2011111,390.0,8719,92,0,1,0,0,0,8718,2001-01-01,2025-04-30,True
03196,Baja_California_Sur,LA HIGUERILLA,BAJA CALIFORNIA SUR,LA PAZ,OPERANDO,23.86944444,-110.0708333,420.0,8840,92,0,4,0,0,0,8836,2001-01-01,2025-03-31,True
03197,Baja_California_Sur,LA PALMILLA,BAJA CALIFORNIA SUR,LA PAZ,OPERANDO,23.79222222,-109.875,540.0,8694,92,0,5,0,0,0,8689,2001-01-01,2025-03-31,True
03198,Baja_California_Sur,POTRERILLOS,BAJA CALIFORNIA SUR,LA PAZ,OPERANDO,24.68472222,-110.8444444,340.0,8693,92,0,11,0,0,0,8682,2001-01-01,2025-03-31,True
04001,Campeche,BOLONCHEN,CAMPECHE,HOPELCHÉN,OPERANDO,20.00361111,-89.7475,120.0,9113,16976,0,127,0,0,0,8986,2001-01-01,2025-12-29,True
04002,Campeche,CALKINI (SMN),CAMPECHE,CALKINÍ,OPERANDO,20.36,-90.05416667,15.0,4068,8599,0,2,0,0,0,4066,2014-01-01,2025-10-31,True
04003,Campeche,CAMPECHE (OBS),CAMPECHE,CAMPECHE,OPERANDO,19.83333333,-90.5,10.0,6387,18959,0,117,0,0,0,6270,2001-01-01,2025-12-29,True
04004,Campeche,CANDELARIA (SMN),CAMPECHE,CANDELARIA,OPERANDO,18.18444444,-91.04611111,40.0,9068,10681,0,124,0,0,0,8944,2001-01-01,2025-12-29,True
04005,Campeche,CAYO ARCAS,CAMPECHE,CAMPECHE,SUSPENDIDA,20.20472222,-91.96222222,6.0,0,17962,0,0,0,0,0,0,,,False
04006,Campeche,CAYO ARENAS,YUCATÁN,PROGRESO,SUSPENDIDA,22.115,-91.39777778,1.0,0,15895,0,0,0,0,0,0,,,False
04007,Campeche,EL CARMEN - LIMNOLOGIA (SMN),CAMPECHE,CARMEN,SUSPENDIDA,18.65472222,-91.76166667,1.0,8391,13901,0,132,0,0,0,8259,2001-01-01,2025-12-29,True
04008,Campeche,CHAMPOTON (SMN),CAMPECHE,CHAMPOTÓN,SUSPENDIDA,19.35,-90.71666667,10.0,0,23016,0,0,0,0,0,0,,,False
04009,Campeche,DZIBALCHEN,CAMPECHE,HOPELCHÉN,OPERANDO,19.45916667,-89.73805556,110.0,8086,14873,0,16,0,0,0,8070,2001-01-01,2025-06-30,True
04010,Campeche,ESCARCEGA (SMN),CAMPECHE,ESCÁRCEGA,OPERANDO,18.60444444,-90.74111111,80.0,9082,10896,0,125,0,0,0,8957,2001-01-01,2025-12-29,True
04011,Campeche,HECELCHAKAN (DGE),CAMPECHE,HECELCHAKÁN,OPERANDO,20.18333333,-90.13333333,15.0,2857,14414,0,127,0,0,0,2730,2018-01-01,2025-12-29,True
04012,Campeche,HOOL,CAMPECHE,CHAMPOTÓN,OPERANDO,19.5125,-90.41083333,25.0,8548,13560,0,3,0,0,0,8545,2001-01-01,2024-12-31,True
04013,Campeche,HOPELCHEN,CAMPECHE,HOPELCHÉN,OPERANDO,19.75777778,-89.84305556,100.0,9114,16913,0,135,0,0,0,8979,2001-01-01,2025-12-29,True
04014,Campeche,ISLA ARENAS,CAMPECHE,CALKINÍ,OPERANDO,20.69027778,-90.4525,1.0,8730,11215,0,4,0,0,0,8726,2001-01-01,2025-07-24,True
04015,Campeche,ISLA AGUADA,CAMPECHE,CARMEN,OPERANDO,18.78222222,-91.49444444,1.0,8875,15081,0,32,0,0,0,8843,2001-01-01,2025-09-25,True
04016,Campeche,ISLA PEREZ,CAMPECHE,INSULAR - SIN MUNICIPIO,SUSPENDIDA,22.3825,-89.68777778,4.0,0,17380,0,0,0,0,0,0,,,False
04017,Campeche,ITURBIDE,CAMPECHE,HOPELCHÉN,OPERANDO,19.57833333,-89.60055556,80.0,8610,11882,0,3,0,0,0,8607,2001-01-01,2024-12-30,True
04018,Campeche,LA ESPERANZA,CAMPECHE,CALAKMUL,SUSPENDIDA,18.16666667,-90.08333333,290.0,0,6043,0,0,0,0,0,0,,,False
04019,Campeche,NANZAL,CAMPECHE,CARMEN,SUSPENDIDA,18.26388889,-91.30277778,10.0,0,2999,0,0,0,0,0,0,,,False
04020,Campeche,MIGUEL HIDALGO,CAMPECHE,CANDELARIA,SUSPENDIDA,17.98333333,-90.83333333,67.0,0,8538,0,0,0,0,0,0,,,False
04021,Campeche,MONCLOVA,CAMPECHE,CANDELARIA,OPERANDO,18.05666667,-90.82055556,100.0,8861,12726,0,18,0,0,0,8843,2001-01-01,2025-06-30,True
04023,Campeche,NILCHI,CAMPECHE,CAMPECHE,OPERANDO,19.845,-90.27,10.0,8760,12751,0,3,0,0,0,8757,2001-01-01,2024-12-31,True
04024,Campeche,PALIZADA,CAMPECHE,PALIZADA,OPERANDO,18.25305556,-92.09194444,4.0,9117,18737,0,126,0,0,0,8991,2001-01-01,2025-12-29,True
04025,Campeche,PALMAR DE VISTA ALEGRE,CAMPECHE,PALIZADA,OPERANDO,18.15083333,-92.01638889,3.0,1662,1606,0,28,0,0,0,1634,2018-01-01,2025-09-25,True
04026,Campeche,PIXOYAL (DGE),CAMPECHE,CHAMPOTÓN,OPERANDO,18.93416667,-90.59888889,40.0,2016,10134,0,9,0,0,0,2007,2018-01-01,2025-09-07,True
04027,Campeche,PLACERES,CAMPECHE,CALAKMUL,SUSPENDIDA,18.15555556,-89.42277778,230.0,0,1611,0,0,0,0,0,0,,,False
04028,Campeche,PUSTUNICH,CAMPECHE,CHAMPOTÓN,OPERANDO,19.14472222,-90.47944444,30.0,8486,17315,0,12,0,0,0,8474,2001-01-01,2024-12-31,True
04029,Campeche,SABANCUY,CAMPECHE,CARMEN,OPERANDO,18.97277778,-91.17583333,5.0,9088,16924,0,134,0,0,0,8954,2001-01-01,2025-12-29,True
04030,Campeche,SAN ISIDRO,CAMPECHE,CARMEN,OPERANDO,18.63166667,-91.05027778,10.0,7852,12193,0,19,0,0,0,7833,2003-06-01,2025-08-26,True
04031,Campeche,SILVITUC,CAMPECHE,ESCÁRCEGA,OPERANDO,18.63833333,-90.29833333,75.0,8464,14428,0,58,0,0,0,8406,2001-01-01,2025-10-12,True
04032,Campeche,TENABO (SMN),CAMPECHE,TENABO,SUSPENDIDA,20.03333333,-90.23333333,7.0,365,7976,0,0,0,0,0,365,2013-01-01,2013-12-31,True
04033,Campeche,TRIANGULO OESTE,YUCATÁN,CELESTÚN,SUSPENDIDA,20.959166666,-92.307222222,1.0,0,11989,0,0,0,0,0,0,,,False
04034,Campeche,XCUPIL (SMN),CAMPECHE,HOPELCHÉN,SUSPENDIDA,19.71666667,-89.85,80.0,365,9474,0,0,0,0,0,365,2022-01-01,2022-12-31,True
04035,Campeche,XMABEN,CAMPECHE,HOPELCHÉN,SUSPENDIDA,19.23472222,-89.31388889,130.0,0,3553,0,0,0,0,0,0,,,False
04036,Campeche,XPUGIL,CAMPECHE,CALAKMUL,OPERANDO,18.50833333,-89.395,250.0,5780,1011,0,134,0,0,0,5646,2010-01-01,2025-12-29,True
04037,Campeche,ZOH LAGUNA,CAMPECHE,CALAKMUL,OPERANDO,18.59222222,-89.41722222,265.0,8683,15579,0,14,0,0,0,8669,2001-01-01,2025-09-08,True
04038,Campeche,CAMPECHE (DGE),CAMPECHE,CAMPECHE,OPERANDO,19.84222222,-90.53166667,10.0,9123,17594,0,123,0,0,0,9000,2001-01-01,2025-12-29,True
04039,Campeche,CANDELARIA (DGE),CAMPECHE,CANDELARIA,SUSPENDIDA,18.18277778,-91.04583333,50.0,365,9092,0,0,0,0,0,365,2022-01-01,2022-12-31,True
04040,Campeche,EL CARMEN - CALETA (DGE),CAMPECHE,CARMEN,OPERANDO,18.658055555,-91.76611111,1.0,0,7146,0,0,0,0,0,0,,,False
04041,Campeche,CHAMPOTON (DGE),CAMPECHE,CHAMPOTÓN,OPERANDO,19.35555556,-90.72333333,10.0,9116,5512,0,125,0,0,0,8991,2001-01-01,2025-12-29,True
04042,Campeche,ESCARCEGA (DGE),CAMPECHE,ESCÁRCEGA,SUSPENDIDA,18.6,-90.73333333,85.0,0,9811,0,0,0,0,0,0,,,False
04043,Campeche,HECELCHAKAN (SMN),CAMPECHE,HECELCHAKÁN,SUSPENDIDA,20.19722222,-90.12222222,50.0,8361,5081,0,4,0,0,0,8357,2001-01-01,2025-07-06,True
04044,Campeche,PIXOYAL (SMN),CAMPECHE,CHAMPOTÓN,OPERANDO,18.93277778,-90.59861111,40.0,6293,7301,0,10,0,0,0,6283,2001-01-01,2024-10-31,True
04045,Campeche,EDZNA I,CAMPECHE,CAMPECHE,SUSPENDIDA,19.45833333,-90.10444444,125.0,0,2686,0,0,0,0,0,0,,,False
04046,Campeche,ALTAMIRA,CAMPECHE,ESCÁRCEGA,SUSPENDIDA,18.58138889,-90.25777778,100.0,0,1430,0,0,0,0,0,0,,,False
04047,Campeche,CASTAMAY,CAMPECHE,CAMPECHE,SUSPENDIDA,19.83777778,-90.43055556,25.0,0,3181,0,0,0,0,0,0,,,False
04050,Campeche,E.T.A. 006 TENABO,CAMPECHE,TENABO,SUSPENDIDA,20.05,-90.2,7.0,0,2142,0,0,0,0,0,0,,,False
04051,Campeche,E.T.A. 086 CALKINI,CAMPECHE,CALKINÍ,SUSPENDIDA,20.36666667,-90.05,15.0,0,2675,0,0,0,0,0,0,,,False
04052,Campeche,CANASAYAB,CAMPECHE,CHAMPOTÓN,OPERANDO,19.29444444,-90.57583333,37.0,7624,5136,0,130,0,0,0,7494,2005-01-01,2025-12-29,True
04053,Campeche,SANTA CRISTINA,CAMPECHE,CAMPECHE,OPERANDO,19.81527778,-90.38111111,10.0,7099,8443,0,4,0,0,0,7095,2001-01-01,2024-05-31,True
04054,Campeche,CHICBUL,CAMPECHE,CARMEN,OPERANDO,18.77805556,-90.9225,25.0,8850,8250,0,16,0,0,0,8834,2001-01-01,2025-09-25,True
04055,Campeche,CAMPO EXPERIMENTAL EL TORMENTO,CAMPECHE,ESCÁRCEGA,SUSPENDIDA,18.6,-90.71666667,50.0,0,7726,0,0,0,0,0,0,,,False
04056,Campeche,MOLINO CHUMPAN,CAMPECHE,PALIZADA,OPERANDO,17.93888889,-91.73611111,10.0,7290,7577,0,35,0,0,0,7255,2001-10-01,2025-06-25,True
04057,Campeche,MAMANTEL,CAMPECHE,CARMEN,OPERANDO,18.52472222,-91.08916667,12.0,8463,7947,0,15,0,0,0,8448,2001-01-01,2025-04-20,True
04058,Campeche,NOH YAXCHE,CAMPECHE,CAMPECHE,OPERANDO,19.61472222,-90.21666667,30.0,9092,8223,0,146,0,0,0,8946,2001-01-01,2025-12-29,True
04059,Campeche,TINUN,CAMPECHE,TENABO,OPERANDO,19.96138889,-90.22777778,50.0,8824,7581,0,5,0,0,0,8819,2001-01-01,2025-05-31,True
04060,Campeche,XBONIL,CAMPECHE,CALAKMUL,OPERANDO,18.63555556,-90.16555556,70.0,7980,8186,0,44,0,0,0,7936,2001-01-01,2025-09-25,True
04061,Campeche,CONHUAS,CAMPECHE,CALAKMUL,OPERANDO,18.53944444,-89.92222222,170.0,8545,5694,0,35,0,0,0,8510,2001-01-01,2025-09-28,True
04062,Campeche,YOHALTUN,CAMPECHE,CHAMPOTÓN,OPERANDO,19.01666667,-90.31666667,30.0,4568,1717,0,14,0,0,0,4554,2011-01-01,2025-12-31,True
04063,Campeche,EDZNA II,CAMPECHE,CAMPECHE,OPERANDO,19.52722222,-90.18777778,30.0,8930,7351,0,2,0,0,0,8928,2001-01-01,2025-09-30,True
04064,Campeche,BECAL,CAMPECHE,CALKINÍ,OPERANDO,20.42638889,-90.03111111,16.0,8576,7002,0,18,0,0,0,8558,2001-01-01,2024-12-31,True
04065,Campeche,NUNKINI,CAMPECHE,CALKINÍ,SUSPENDIDA,20.3875,-90.14305556,25.0,0,4978,0,0,0,0,0,0,,,False
04066,Campeche,XCUPIL (DGE),CAMPECHE,HOPELCHÉN,OPERANDO,19.66444444,-89.85916667,60.0,8582,10502,0,129,0,0,0,8453,2001-01-01,2025-12-29,True
04067,Campeche,CALKINI (DGE),CAMPECHE,CALKINÍ,SUSPENDIDA,20.37388889,-90.05222222,15.0,4590,6849,0,1,0,0,0,4589,2001-01-01,2013-11-30,True
04068,Campeche,CHINA,CAMPECHE,CAMPECHE,OPERANDO,19.67305556,-90.47361111,10.0,9035,6338,0,1,0,0,0,9034,2001-01-01,2025-10-31,True
04070,Campeche,DZITBALCHE,CAMPECHE,CALKINÍ,OPERANDO,20.32138889,-90.05888889,30.0,8828,6168,0,13,0,0,0,8815,2001-01-01,2025-09-30,True
04071,Campeche,POCYAXUN,CAMPECHE,CAMPECHE,OPERANDO,19.72972222,-90.35083333,20.0,8644,5733,0,3,0,0,0,8641,2001-01-01,2024-12-31,True
04072,Campeche,SIHO CHAC,CAMPECHE,CHAMPOTÓN,OPERANDO,19.50555556,-90.58416667,15.0,8795,6665,0,1,0,0,0,8794,2001-01-01,2025-06-30,True
04073,Campeche,TENABO (DGE),CAMPECHE,TENABO,SUSPENDIDA,20.03972222,-90.22527778,10.0,0,1127,0,0,0,0,0,0,,,False
04075,Campeche,CANKI,CAMPECHE,TENABO,OPERANDO,19.98805556,-90.11777778,50.0,8573,4076,0,9,0,0,0,8564,2001-02-01,2025-06-30,True
04076,Campeche,CHUNCHINTOK,CAMPECHE,HOPELCHÉN,OPERANDO,19.35944444,-89.58111111,150.0,8084,4337,0,39,0,0,0,8045,2001-01-01,2025-09-28,True
04077,Campeche,SAN JUAN BAUTISTA,CAMPECHE,HOPELCHÉN,OPERANDO,19.87388889,-89.92694444,90.0,8033,1443,0,11,0,0,0,8022,2001-01-01,2024-06-30,True
04078,Campeche,CHAC CHEITO,CAMPECHE,CHAMPOTÓN,OPERANDO,19.05083333,-90.40694444,90.0,8792,1827,0,2,0,0,0,8790,2001-01-01,2025-06-30,True
04079,Campeche,VISTA ALEGRE,CAMPECHE,CARMEN,OPERANDO,18.04333333,-91.6575,10.0,8053,1795,0,18,0,0,0,8035,2001-01-01,2025-08-28,True
04080,Campeche,ALVARADO,CAMPECHE,CALAKMUL,OPERANDO,18.01722222,-89.27,170.0,8722,1136,0,41,0,0,0,8681,2001-01-01,2025-09-30,True
04081,Campeche,CRISTOBAL COLON,CAMPECHE,CALAKMUL,OPERANDO,18.22166667,-89.45361111,250.0,7761,1065,0,11,0,0,0,7750,2001-01-01,2025-09-28,True
04082,Campeche,PABLO T. BURGOS,CAMPECHE,CANDELARIA,OPERANDO,18.29666667,-90.69694444,50.0,7550,1096,0,14,0,0,0,7536,2001-01-01,2025-09-25,True
04083,Campeche,ENTRE HERMANOS,CAMPECHE,CARMEN,OPERANDO,18.45694444,-91.14194444,40.0,6692,1065,0,14,0,0,0,6678,2001-01-01,2024-07-21,True
04084,Campeche,TIXMUCUY,CAMPECHE,CAMPECHE,OPERANDO,19.60194444,-90.28166667,34.0,8096,4018,0,11,0,0,0,8085,2001-01-01,2025-08-28,True
04085,Campeche,POMUCH,CAMPECHE,HECELCHAKÁN,OPERANDO,20.13694444,-90.17472222,10.0,8674,1827,0,5,0,0,0,8669,2001-01-01,2024-12-31,True
04086,Campeche,EL ZAPOTE,CAMPECHE,CARMEN,OPERANDO,18.21638889,-91.80138889,10.0,7431,1510,0,26,0,0,0,7405,2001-02-14,2025-06-30,True
04087,Campeche,POCBOC,CAMPECHE,HECELCHAKÁN,SUSPENDIDA,20.23694444,-90.10305556,10.0,5777,0,0,1,0,0,0,5776,2002-01-01,2017-12-31,True
07001,Chiapas,ABASOLO CHIAPAS (CFE),CHIAPAS,OCOSINGO,SUSPENDIDA,16.83333333,-92.21722222,1280.0,4108,10593,0,0,0,0,0,4108,2001-01-01,2012-08-31,True
07002,Chiapas,ABELARDO L. RODRIGUEZ,CHIAPAS,COMITÁN DE DOMÍNGUEZ,OPERANDO,16.37916667,-92.2375,1920.0,7398,15410,0,4,0,0,0,7394,2001-01-01,2025-11-02,True
07003,Chiapas,ACALA,CHIAPAS,ACALA,OPERANDO,16.55277778,-92.80416667,420.0,7930,12907,0,18,0,0,0,7912,2001-01-01,2023-12-31,True
07004,Chiapas,AGUA AZUL,CHIAPAS,OCOSINGO,SUSPENDIDA,16.78333333,-90.91666667,640.0,0,8126,0,0,0,0,0,0,,,False
07005,Chiapas,ALMANDRO (CFE),CHIAPAS,HUITIUPÁN,SUSPENDIDA,17.28333333,-92.68333333,220.0,0,10800,0,0,0,0,0,0,,,False
07006,Chiapas,ALTAMIRANO (SMN),CHIAPAS,ALTAMIRANO,OPERANDO,16.73916667,-92.03777778,1240.0,8364,20951,0,12,0,0,0,8352,2001-01-01,2025-05-31,True
07007,Chiapas,AMATENANGO DEL VALLE,CHIAPAS,AMATENANGO DEL VALLE,OPERANDO,16.52805556,-92.43777778,1820.0,8912,12977,0,7,0,0,0,8905,2001-06-01,2025-11-25,True
07008,Chiapas,ANGEL ALBINO CORZO,CHIAPAS,ÁNGEL ALBINO CORZO,SUSPENDIDA,15.86666667,-92.71666667,640.0,123,15493,0,0,0,0,0,123,2015-07-01,2015-10-31,True
07009,Chiapas,AQUESPALA,CHIAPAS,FRONTERA COMALAPA,SUSPENDIDA,15.79416667,-91.92027778,617.0,3630,15854,0,1,0,0,0,3629,2001-02-01,2013-06-23,True
07010,Chiapas,ARCO DE PIEDRA,CHIAPAS,VENUSTIANO CARRANZA,SUSPENDIDA,16.2,-92.66666667,717.0,0,9156,0,0,0,0,0,0,,,False
07011,Chiapas,ARGELIA,CHIAPAS,CHICOMUSELO,SUSPENDIDA,15.88333333,-92.36666667,660.0,0,9218,0,0,0,0,0,0,,,False
07012,Chiapas,FINCA ARGOVIA,CHIAPAS,TAPACHULA,OPERANDO,15.12666667,-92.29916667,620.0,6752,16560,0,585,0,0,0,6167,2001-01-01,2023-12-31,True
07013,Chiapas,ARRIAGA (OBS),CHIAPAS,ARRIAGA,OPERANDO,16.24111111,-93.8975,48.5,3177,9230,0,4,0,0,0,3173,2001-01-01,2021-05-31,True
07014,Chiapas,BELISARIO DOMINGUEZ I,CHIAPAS,MOTOZINTLA,SUSPENDIDA,15.30833333,-92.35833333,731.0,0,9494,0,0,0,0,0,0,,,False
07015,Chiapas,BOCHIL,CHIAPAS,BOCHIL,OPERANDO,16.98638889,-92.89138889,1200.0,8430,19795,0,2,0,0,0,8428,2001-01-01,2024-03-31,True
07016,Chiapas,BOMBANA (CFE),CHIAPAS,SOYALÓ,SUSPENDIDA,16.94166667,-93.01666667,780.0,607,19436,0,0,0,0,0,607,2001-01-01,2012-12-31,True
07017,Chiapas,BONAMPAK,CHIAPAS,OCOSINGO,SUSPENDIDA,16.73333333,-91.08333333,360.0,0,5083,0,0,0,0,0,0,,,False
07018,Chiapas,CACAHOATAN,CHIAPAS,CACAHOATÁN,OPERANDO,14.98833333,-92.16444444,480.0,4922,20007,0,2,0,0,0,4920,2001-01-01,2018-10-31,True
07019,Chiapas,CAHUACAN,CHIAPAS,TAPACHULA,SUSPENDIDA,14.72222222,-92.26944444,50.0,2180,14170,0,0,0,0,0,2180,2001-01-01,2007-05-31,True
07020,Chiapas,VERTEDOR 1-2-3,CHIAPAS,MEZCALAPA,OPERANDO,17.22083333,-93.73388889,270.0,5751,10952,0,2,0,0,0,5749,2006-01-01,2021-12-31,True
07021,Chiapas,CATARINITAS,CHIAPAS,LA CONCORDIA,SUSPENDIDA,15.9025,-92.48277778,945.0,4961,8508,0,1,0,0,0,4960,2001-01-01,2014-11-01,True
07022,Chiapas,PLAYAS DE CATAZAJA,CHIAPAS,CATAZAJÁ,OPERANDO,17.72833333,-92.01555556,10.0,7875,12803,0,2,0,0,0,7873,2001-01-01,2024-03-31,True
07023,Chiapas,CINTALAPA,CHIAPAS,HIDALGO,SUSPENDIDA,16.7,-93.71666667,520.0,337,16868,0,1,0,0,0,336,2014-01-05,2014-12-06,True
07024,Chiapas,COMALAPA (CFE),CHIAPAS,BELLA VISTA,SUSPENDIDA,15.61666667,-92.15,985.0,758,11164,0,0,0,0,0,758,2001-01-01,2003-02-28,True
07025,Chiapas,COMITAN (OBS),CHIAPAS,COMITÁN DE DOMÍNGUEZ,OPERANDO,16.23333333,-92.13333333,1709.0,9042,16371,0,32,0,0,0,9010,2001-01-01,2025-12-30,True
07026,Chiapas,CUAUHTEMOC (CFE),CHIAPAS,FRONTERA COMALAPA,SUSPENDIDA,15.66527778,-92.00138889,834.0,1429,13575,0,0,0,0,0,1429,2001-01-01,2005-11-30,True
07027,Chiapas,COPAINALA,CHIAPAS,COPAINALÁ,SUSPENDIDA,17.08333333,-93.21666667,640.0,273,15049,0,0,0,0,0,273,2012-01-01,2012-09-30,True
07028,Chiapas,CHACAMAX,CHIAPAS,PALENQUE,OPERANDO,17.47333333,-91.70777778,60.0,8260,10471,0,3,0,0,0,8257,2001-01-01,2025-10-31,True
07029,Chiapas,CHAJUL,CHIAPAS,OCOSINGO,SUSPENDIDA,16.83333333,-90.93333333,223.0,0,6564,0,0,0,0,0,0,,,False
07030,Chiapas,SAN JUAN CHAMULA,CHIAPAS,CHAMULA,OPERANDO,16.79694444,-92.69666667,1930.0,6333,13455,0,146,0,0,0,6187,2001-01-01,2023-03-31,True
07031,Chiapas,CHANAL,CHIAPAS,CHANAL,OPERANDO,16.65972222,-92.2625,2100.0,6482,10831,0,7,0,0,0,6475,2006-11-10,2025-07-01,True
07032,Chiapas,CHAPULTENANGO,CHIAPAS,CHAPULTENANGO,SUSPENDIDA,17.33333333,-93.1,600.0,0,9044,0,0,0,0,0,0,,,False
07033,Chiapas,SAN PEDRO CHENALHO (SMN),CHIAPAS,CHENALHÓ,SUSPENDIDA,16.9,-92.6,1520.0,0,17144,0,0,0,0,0,0,,,False
07034,Chiapas,VILLA DE CHIAPILLA,CHIAPAS,CHIAPILLA,OPERANDO,16.5775,-92.71527778,550.0,7456,19646,0,1,0,0,0,7455,2001-01-01,2021-10-31,True
07035,Chiapas,CHICOASEN (CFE),CHIAPAS,CHICOASÉN,OPERANDO,16.94166667,-93.09861111,1240.0,8032,14124,0,3,0,0,0,8029,2001-01-01,2023-12-31,True
07036,Chiapas,CHILIL,CHIAPAS,HUIXTÁN,OPERANDO,16.67777778,-92.48916667,2266.0,7086,11191,0,369,0,0,0,6717,2001-01-01,2025-06-30,True
07037,Chiapas,FINCA CUXTEPEQUES,CHIAPAS,LA CONCORDIA,OPERANDO,15.72861111,-92.96888889,1550.0,8608,16628,0,13,0,0,0,8595,2001-01-01,2025-12-31,True
07038,Chiapas,DESPOBLADO,CHIAPAS,VILLA COMALTITLÁN,OPERANDO,15.2025,-92.55805556,63.0,6514,12758,0,22,0,0,0,6492,2001-01-01,2025-11-30,True
07039,Chiapas,EL BOQUERON,CHIAPAS,SUCHIAPA,OPERANDO,16.64416667,-93.15722222,500.0,8397,18891,0,21,0,0,0,8376,2001-01-01,2023-12-31,True
07040,Chiapas,EL BURRERO,CHIAPAS,IXTAPA,OPERANDO,16.78916667,-92.82833333,1544.0,8947,17906,0,5,0,0,0,8942,2001-01-01,2025-12-31,True
07041,Chiapas,EL CALIENTE (CFE),CHIAPAS,LAS MARGARITAS,SUSPENDIDA,16.3,-91.46666667,687.0,0,4047,0,0,0,0,0,0,,,False
07042,Chiapas,EL CARMEN (CFE),CHIAPAS,OCOSINGO,SUSPENDIDA,16.76666667,-91.61666667,929.0,0,5980,0,0,0,0,0,0,,,False
07043,Chiapas,EL CEDRO,CHIAPAS,OCOSINGO,SUSPENDIDA,16.41666667,-91.08333333,510.0,0,10267,0,0,0,0,0,0,,,False
07044,Chiapas,EL COLORADO (CFE),CHIAPAS,OCOSINGO,SUSPENDIDA,16.15,-91.15,300.0,0,8596,0,0,0,0,0,0,,,False
07045,Chiapas,EL DORADO,CHIAPAS,SUCHIATE,OPERANDO,14.67277778,-92.21277778,35.0,6296,16840,0,4,0,0,0,6292,2001-01-01,2025-08-01,True
07046,Chiapas,EL EUSEBA (CFE),CHIAPAS,TENEJAPA,SUSPENDIDA,16.21666667,-91.33333333,379.0,0,10002,0,0,0,0,0,0,,,False
07047,Chiapas,EL JABALI (CFE),CHIAPAS,LAS MARGARITAS,SUSPENDIDA,16.13333333,-91.36666667,360.0,0,9067,0,0,0,0,0,0,,,False
07048,Chiapas,FINCA EL TRIUNFO,CHIAPAS,ESCUINTLA,SUSPENDIDA,15.34805556,-92.54861111,822.0,2800,11093,0,0,0,0,0,2800,2001-01-01,2008-08-31,True
07049,Chiapas,MAYA SOL,CHIAPAS,OCOZOCOAUTLA DE ESPINOSA,OPERANDO,16.73444444,-93.31722222,998.0,2770,0,0,39,0,0,0,2731,2016-08-03,2025-03-01,True
07050,Chiapas,EL PROGRESO,CHIAPAS,OCOZOCOAUTLA DE ESPINOSA,OPERANDO,16.70888889,-93.4025,781.0,7358,15047,0,8,0,0,0,7350,2001-01-01,2021-09-30,True
07051,Chiapas,EL ROSARIO (CFE),CHIAPAS,OCOSINGO,SUSPENDIDA,16.85,-91.78333333,740.0,0,9993,0,0,0,0,0,0,,,False
07052,Chiapas,EL ZAPOTAL (CFE),CHIAPAS,LAS MARGARITAS,SUSPENDIDA,16.16666667,-91.5,500.0,0,8783,0,0,0,0,0,0,,,False
07053,Chiapas,ESCUINTLA (DGE),CHIAPAS,ESCUINTLA,OPERANDO,15.33083333,-92.65583333,92.0,8346,15735,0,53,0,0,0,8293,2001-01-01,2025-12-01,True
07054,Chiapas,FINCA A. PRUSIA,CHIAPAS,ÁNGEL ALBINO CORZO,OPERANDO,15.73194444,-92.79416667,1040.0,5193,14383,0,11,0,0,0,5182,2001-01-01,2022-04-30,True
07055,Chiapas,FINCA CHAYABE,CHIAPAS,LAS MARGARITAS,OPERANDO,16.38138889,-91.71055556,1596.0,7367,15872,0,6,0,0,0,7361,2001-01-01,2021-08-31,True
07056,Chiapas,FINCA CHIRIPA,CHIAPAS,TAPACHULA,SUSPENDIDA,15.16666667,-92.3,991.0,2403,9770,0,0,0,0,0,2403,2002-01-01,2008-07-31,True
07057,Chiapas,FINCA CHICHARRAS,CHIAPAS,TAPACHULA,SUSPENDIDA,15.13305556,-92.24222222,1328.0,4095,14338,0,89,0,0,0,4006,2001-01-01,2014-10-14,True
07058,Chiapas,EL PERU,CHIAPAS,TAPACHULA,SUSPENDIDA,15.1,-92.26666667,800.0,882,10902,0,0,0,0,0,882,2007-01-01,2009-05-31,True
07060,Chiapas,FINCA GENOVA,CHIAPAS,TAPACHULA,SUSPENDIDA,15.16666667,-92.31666667,880.0,0,7125,0,0,0,0,0,0,,,False
07061,Chiapas,FINCA HAMBURGO,CHIAPAS,TAPACHULA,OPERANDO,15.17388889,-92.32527778,1200.0,7185,13211,0,75,0,0,0,7110,2001-01-01,2023-12-31,True
07062,Chiapas,FINCA LA SOLEDAD,CHIAPAS,LAS MARGARITAS,OPERANDO,16.38805556,-91.8625,1469.0,5498,13398,0,5,0,0,0,5493,2001-01-01,2022-07-30,True
07063,Chiapas,FINCA LIQUIDAMBAR,CHIAPAS,ÁNGEL ALBINO CORZO,SUSPENDIDA,15.78333333,-92.73333333,1080.0,0,10166,0,0,0,0,0,0,,,False
07064,Chiapas,FINCA MORELIA,CHIAPAS,TILA,SUSPENDIDA,17.38333333,-92.55,653.0,0,8327,0,0,0,0,0,0,,,False
07065,Chiapas,FINCA OCOTLAN,CHIAPAS,VILLAFLORES,OPERANDO,16.36944444,-93.47722222,650.0,7115,12510,0,2,0,0,0,7113,2001-01-01,2021-07-31,True
07066,Chiapas,FINCA SAN ENRIQUE,CHIAPAS,TAPACHULA,SUSPENDIDA,15.13333333,-92.3,570.0,0,5994,0,0,0,0,0,0,,,False
07067,Chiapas,FRONTERA AMATENANGO,CHIAPAS,AMATENANGO DE LA FRONTERA,OPERANDO,15.43361111,-92.11416667,900.0,8642,11341,0,5,0,0,0,8637,2001-01-01,2025-04-30,True
07068,Chiapas,FRONTERA HIDALGO,CHIAPAS,FRONTERA HIDALGO,OPERANDO,14.77722222,-92.17611111,60.0,6201,18262,0,6,0,0,0,6195,2001-01-01,2023-10-25,True
07069,Chiapas,GRIJALVA,CHIAPAS,CHICOASÉN,SUSPENDIDA,16.96944444,-93.10472222,841.0,258,10014,0,1,0,0,0,257,2003-03-04,2003-12-15,True
07070,Chiapas,GUADALUPE GRIJALVA,CHIAPAS,FRONTERA COMALAPA,OPERANDO,15.69361111,-92.16111111,630.0,6129,13693,0,1,0,0,0,6128,2001-01-01,2021-10-31,True
07071,Chiapas,GUAQUITEPEC,CHIAPAS,CHILÓN,OPERANDO,17.14472222,-92.29027778,1160.0,7274,12524,0,2,0,0,0,7272,2001-01-01,2020-12-31,True
07072,Chiapas,HACIENDA LAS MARAVILLAS,CHIAPAS,TAPACHULA,SUSPENDIDA,15.1,-92.28333333,660.0,0,8000,0,0,0,0,0,0,,,False
07073,Chiapas,HACIENDA SAN CRISTOBAL,CHIAPAS,TONALÁ,SUSPENDIDA,15.98333333,-93.71666667,38.0,0,11150,0,0,0,0,0,0,,,False
07074,Chiapas,HORCONES,CHIAPAS,TONALÁ,SUSPENDIDA,15.95527778,-93.60555556,130.0,3281,12925,0,0,0,0,0,3281,2001-01-01,2010-11-30,True
07075,Chiapas,HUEHUETAN,CHIAPAS,HUEHUETÁN,OPERANDO,15.00222222,-92.40027778,65.0,5339,13179,0,381,0,0,0,4958,2001-01-01,2022-12-20,True
07076,Chiapas,HUIXTAN (CFE),CHIAPAS,HUIXTÁN,SUSPENDIDA,16.71388889,-92.45833333,1990.0,1614,12619,0,0,0,0,0,1614,2001-01-01,2005-11-30,True
07077,Chiapas,HUIXTLA,CHIAPAS,HUIXTLA,OPERANDO,15.14138889,-92.48638889,40.0,8251,16946,0,50,0,0,0,8201,2001-01-01,2025-12-01,True
07078,Chiapas,IGNACIO LOPEZ RAYON,CHIAPAS,SUCHIATE,OPERANDO,14.61777778,-92.18472222,7.0,7754,17420,0,1,0,0,0,7753,2001-01-01,2025-09-02,True
07079,Chiapas,ROSARIO IZAPA (IMPA),CHIAPAS,TUXTLA CHICO,SUSPENDIDA,14.97388889,-92.155,425.0,0,10197,0,0,0,0,0,0,,,False
07081,Chiapas,IXCAN,CHIAPAS,OCOSINGO,SUSPENDIDA,16.83333333,-91.06666667,200.0,0,7183,0,0,0,0,0,0,,,False
07082,Chiapas,IXTACOMITAN,CHIAPAS,IXTACOMITÁN,SUSPENDIDA,17.43027778,-93.095,150.0,0,5692,0,0,0,0,0,0,,,False
07083,Chiapas,IXTAPA,CHIAPAS,IXTAPA,SUSPENDIDA,16.76666667,-92.9,1380.0,0,11036,0,0,0,0,0,0,,,False
07084,Chiapas,JESUS CHIAPAS,CHIAPAS,PIJIJIAPAN,SUSPENDIDA,15.80833333,-93.35833333,90.0,917,11911,0,3,0,0,0,914,2001-01-01,2003-08-31,True
07085,Chiapas,PALENQUE (SMN),CHIAPAS,PALENQUE,SUSPENDIDA,17.50916667,-91.98222222,60.0,5404,16987,0,29,0,0,0,5375,2001-01-01,2021-12-30,True
07086,Chiapas,LA ANGOSTURA (CFE),CHIAPAS,ACALA,OPERANDO,16.41972222,-92.76777778,500.0,7670,13879,0,2,0,0,0,7668,2001-01-01,2021-12-31,True
07087,Chiapas,LA CABAÑA,CHIAPAS,SAN CRISTÓBAL DE LAS CASAS,OPERANDO,16.71416667,-92.62888889,2113.0,8647,15498,0,28,0,0,0,8619,2001-01-04,2025-12-31,True
07088,Chiapas,LA CANJA,CHIAPAS,OCOSINGO,SUSPENDIDA,16.71666667,-91.05,340.0,0,2322,0,0,0,0,0,0,,,False
07089,Chiapas,LA CATARATA (CFE),CHIAPAS,TENEJAPA,SUSPENDIDA,16.21666667,-91.31666667,327.0,0,10957,0,0,0,0,0,0,,,False
07090,Chiapas,LA CONCORDIA (DGE),CHIAPAS,LA CONCORDIA,SUSPENDIDA,16.08333333,-92.66666667,540.0,1348,7916,0,0,0,0,0,1348,2012-10-13,2016-09-29,True
07091,Chiapas,LA ESCALERA,CHIAPAS,CHIAPA DE CORZO,SUSPENDIDA,16.52583333,-92.9925,700.0,2471,17000,0,1,0,0,0,2470,2001-01-04,2007-10-31,True
07092,Chiapas,LA ESPERANZA (CFE),CHIAPAS,MOTOZINTLA,SUSPENDIDA,15.3,-92.41666667,780.0,0,3225,0,0,0,0,0,0,,,False
07093,Chiapas,LA LIBERTAD,CHIAPAS,JIQUIPILAS,SUSPENDIDA,16.56111111,-93.65777778,580.0,2473,12108,0,0,0,0,0,2473,2001-01-01,2014-08-31,True
07094,Chiapas,LA MESILLA,CHIAPAS,TZIMOL,OPERANDO,16.18416667,-92.2875,1210.0,7493,9990,0,7,0,0,0,7486,2001-01-01,2023-06-21,True
07095,Chiapas,LA NUEVA (CFE),CHIAPAS,TUZANTÁN,SUSPENDIDA,15.21666667,-92.38333333,240.0,0,3853,0,0,0,0,0,0,,,False
07096,Chiapas,LA PIMIENTA (CFE),CHIAPAS,LAS MARGARITAS,SUSPENDIDA,16.31666667,-91.78333333,1120.0,0,10646,0,0,0,0,0,0,,,False
07097,Chiapas,LA PROVIDENCIA,CHIAPAS,HIDALGO,OPERANDO,16.51944444,-93.96138889,670.0,5471,12653,0,8,0,0,0,5463,2001-01-01,2021-09-30,True
07098,Chiapas,LA TIGRERA,CHIAPAS,TONALÁ,SUSPENDIDA,15.88333333,-93.51666667,25.0,0,4233,0,0,0,0,0,0,,,False
07099,Chiapas,ZAPALUTA,CHIAPAS,LA TRINITARIA,SUSPENDIDA,16.03638889,-92.08888889,720.0,0,17676,0,0,0,0,0,0,,,False
07100,Chiapas,LA UNION,CHIAPAS,HIDALGO,OPERANDO,16.665,-93.80083333,580.0,6584,11832,0,2,0,0,0,6582,2002-01-01,2021-08-31,True
07101,Chiapas,LAS DELICIAS (CFE),CHIAPAS,LA TRINITARIA,SUSPENDIDA,15.96666667,-91.86666667,900.0,0,2894,0,0,0,0,0,0,,,False
07102,Chiapas,LAS FLORES,CHIAPAS,JIQUIPILAS,OPERANDO,16.69194444,-93.56305556,480.0,8876,18624,0,33,0,0,0,8843,2001-01-08,2025-12-01,True
07103,Chiapas,LAS LIMAS (CFE),CHIAPAS,OCOZOCOAUTLA DE ESPINOSA,SUSPENDIDA,16.57833333,-93.35833333,800.0,1369,11018,0,0,0,0,0,1369,2001-01-01,2004-09-30,True
07104,Chiapas,LAS MARGARITAS,CHIAPAS,LAS MARGARITAS,OPERANDO,16.31055556,-91.97472222,1512.0,6696,14019,0,2,0,0,0,6694,2001-01-01,2023-08-31,True
07105,Chiapas,LAS NUBES,CHIAPAS,SALTO DE AGUA,OPERANDO,17.54,-92.34666667,93.0,6479,10122,0,6,0,0,0,6473,2006-01-01,2025-05-31,True
07106,Chiapas,LAS PEÑITAS,CHIAPAS,OSTUACÁN,OPERANDO,17.40083333,-93.45,110.0,8399,10231,0,7,0,0,0,8392,2001-01-01,2023-12-31,True
07107,Chiapas,LAS TAZAS (CFE),CHIAPAS,LAS MARGARITAS,SUSPENDIDA,16.75861111,-91.61472222,600.0,0,10348,0,0,0,0,0,0,,,False
07108,Chiapas,LIVINGSTON (CFE),CHIAPAS,ALTAMIRANO,SUSPENDIDA,16.76666667,-92.05,1200.0,0,10404,0,0,0,0,0,0,,,False
07109,Chiapas,LOS ARCOS,CHIAPAS,SAN CRISTÓBAL DE LAS CASAS,SUSPENDIDA,16.7,-92.61666667,2200.0,0,6751,0,0,0,0,0,0,,,False
07111,Chiapas,LOS VADOS,CHIAPAS,LA CONCORDIA,SUSPENDIDA,16.03333333,-92.55,510.0,0,4325,0,0,0,0,0,0,,,False
07112,Chiapas,MALPASO,CHIAPAS,MEZCALAPA,OPERANDO,17.21416667,-93.58166667,124.0,7648,15093,0,8,0,0,0,7640,2001-01-01,2021-12-31,True
07113,Chiapas,MAPASTEPEC,CHIAPAS,MAPASTEPEC,OPERANDO,15.45166667,-92.87611111,70.0,8256,11648,0,80,0,0,0,8176,2002-01-01,2025-11-02,True
07114,Chiapas,YAQUINTELA,CHIAPAS,OCOSINGO,OPERANDO,16.90944444,-91.73027778,650.0,8551,11118,0,6,0,0,0,8545,2001-01-01,2025-06-03,True
07115,Chiapas,PUENTE MARGARITAS,CHIAPAS,PIJIJIAPAN,SUSPENDIDA,15.58888889,-93.06055556,90.0,1550,12627,0,3,0,0,0,1547,2001-01-01,2022-11-30,True
07116,Chiapas,MEDIO MONTE,CHIAPAS,TUXTLA CHICO,OPERANDO,14.91527778,-92.19055556,245.0,7027,13871,0,361,0,0,0,6666,2001-01-01,2023-07-31,True
07117,Chiapas,METAPA DE DOMINGUEZ,CHIAPAS,METAPA,SUSPENDIDA,14.83111111,-92.19166667,98.0,4415,19788,0,1,0,0,0,4414,2001-06-01,2016-01-31,True
07118,Chiapas,MIRAMAR (CFE),CHIAPAS,LAS MARGARITAS,SUSPENDIDA,16.38333333,-91.58333333,950.0,0,4183,0,0,0,0,0,0,,,False
07119,Chiapas,MOTOZINTLA (SMN),CHIAPAS,MOTOZINTLA,OPERANDO,15.36416667,-92.24805556,1260.0,7667,26455,0,30,0,0,0,7637,2001-01-01,2025-05-02,True
07120,Chiapas,NEZAHUALCOYOTL,CHIAPAS,TECPATÁN,SUSPENDIDA,17.16666667,-93.41666667,192.0,0,2153,0,0,0,0,0,0,,,False
07121,Chiapas,NUEVA ESPERANZA,CHIAPAS,OCOSINGO,SUSPENDIDA,16.45,-91.13333333,1000.0,0,12850,0,0,0,0,0,0,,,False
07122,Chiapas,OCOSINGO,CHIAPAS,OCOSINGO,OPERANDO,16.90861111,-92.08861111,865.0,2477,16439,0,1,0,0,0,2476,2001-07-01,2025-12-31,True
07123,Chiapas,OCOZOCOAUTLA,CHIAPAS,OCOZOCOAUTLA DE ESPINOSA,SUSPENDIDA,16.75083333,-93.37388889,838.0,5080,21442,0,0,0,0,0,5080,2001-01-01,2014-12-31,True
07124,Chiapas,OSTIONAL,CHIAPAS,OCOSINGO,SUSPENDIDA,16.41666667,-91.25,247.0,0,4808,0,0,0,0,0,0,,,False
07125,Chiapas,OXCHUC,CHIAPAS,OXCHUC,OPERANDO,16.78638889,-92.34277778,1987.0,8431,11018,0,15,0,0,0,8416,2001-01-01,2025-01-01,True
07126,Chiapas,PALENQUE (DGE),CHIAPAS,PALENQUE,SUSPENDIDA,17.56666667,-91.98333333,60.0,3065,5541,0,3,0,0,0,3062,2004-01-01,2014-06-30,True
07127,Chiapas,PASO DEL SOLDADO (CFE),CHIAPAS,LA TRINITARIA,SUSPENDIDA,16.11666667,-91.78333333,1485.0,0,4533,0,0,0,0,0,0,,,False
07128,Chiapas,PICHUCALCO (SMN),CHIAPAS,PICHUCALCO,SUSPENDIDA,17.51666667,-93.11666667,50.0,0,13627,0,0,0,0,0,0,,,False
07129,Chiapas,PIJIJIAPAN,CHIAPAS,PIJIJIAPAN,OPERANDO,15.69777778,-93.21138889,57.0,6936,15203,0,50,0,0,0,6886,2001-01-01,2025-12-02,True
07130,Chiapas,PLATANAR DE ARRIBA,CHIAPAS,PICHUCALCO,SUSPENDIDA,17.555,-93.29666667,120.0,0,8280,0,0,0,0,0,0,,,False
07132,Chiapas,PORTACELI,CHIAPAS,VILLAFLORES,OPERANDO,16.44916667,-93.12527778,780.0,6347,12769,0,1,0,0,0,6346,2001-01-01,2021-12-31,True
07133,Chiapas,PRESA NEZAHUALCOYOTL (CFE),CHIAPAS,TECPATÁN,SUSPENDIDA,17.18333333,-93.4,200.0,0,9280,0,0,0,0,0,0,,,False
07134,Chiapas,PUENTE COLGANTE,CHIAPAS,CHIAPA DE CORZO,OPERANDO,16.74055556,-93.03111111,418.0,8645,18113,0,5,0,0,0,8640,2001-01-01,2025-12-31,True
07135,Chiapas,PUENTE CONCORDIA (CFE),CHIAPAS,FRONTERA COMALAPA,OPERANDO,15.84861111,-91.96805556,582.0,7670,14089,0,1,0,0,0,7669,2001-01-01,2021-12-31,True
07136,Chiapas,PUERTO MADERO,CHIAPAS,TAPACHULA,SUSPENDIDA,14.70138889,-92.38638889,5.0,1581,17040,0,0,0,0,0,1581,2001-01-01,2005-04-30,True
07137,Chiapas,PUJILTIC,CHIAPAS,VENUSTIANO CARRANZA,SUSPENDIDA,16.28333333,-92.46666667,600.0,0,7773,0,0,0,0,0,0,,,False
07138,Chiapas,REFORMA I,CHIAPAS,REFORMA,SUSPENDIDA,17.86666667,-93.13333333,20.0,0,11187,0,0,0,0,0,0,,,False
07139,Chiapas,RIO BLANCO (CFE),CHIAPAS,VENUSTIANO CARRANZA,SUSPENDIDA,16.21666667,-92.51666667,717.0,0,12129,0,0,0,0,0,0,,,False
07140,Chiapas,SABANA,CHIAPAS,SALTO DE AGUA,SUSPENDIDA,17.4,-92.21666667,45.0,0,9824,0,0,0,0,0,0,,,False
07141,Chiapas,SALTO DE AGUA (DGE),CHIAPAS,SALTO DE AGUA,OPERANDO,17.55833333,-92.33333333,10.0,8305,16802,0,12,0,0,0,8293,2001-01-01,2023-12-31,True
07142,Chiapas,SAN ANTONIO,CHIAPAS,OCOZOCOAUTLA DE ESPINOSA,SUSPENDIDA,16.55,-93.43333333,812.0,0,6742,0,0,0,0,0,0,,,False
07143,Chiapas,SAN CLEMENTE,CHIAPAS,JIQUIPILAS,SUSPENDIDA,16.36666667,-93.8,660.0,0,3395,0,0,0,0,0,0,,,False
07144,Chiapas,SAN CRISTOBAL DE LAS CASAS (OBS),CHIAPAS,SAN CRISTÓBAL DE LAS CASAS,OPERANDO,16.73333333,-92.63333333,2115.3,8931,15020,0,18,0,0,0,8913,2001-01-01,2025-12-31,True
07145,Chiapas,SAN FRANCISCO,CHIAPAS,LA CONCORDIA,OPERANDO,15.87083333,-92.95361111,540.0,7524,16855,0,3,0,0,0,7521,2001-01-01,2023-01-08,True
07146,Chiapas,SAN JERONIMO,CHIAPAS,UNIÓN JUÁREZ,OPERANDO,15.03972222,-92.13638889,750.0,5893,18184,0,2,0,0,0,5891,2001-01-01,2023-03-31,True
07147,Chiapas,SAN JOAQUIN,CHIAPAS,PICHUCALCO,OPERANDO,17.55833333,-93.10833333,21.0,7305,10437,0,59,0,0,0,7246,2001-01-01,2023-12-31,True
07148,Chiapas,SAN JUAN,CHIAPAS,SAN FERNANDO,SUSPENDIDA,16.89444444,-93.23083333,910.0,0,7595,0,0,0,0,0,0,,,False
07149,Chiapas,SAN PEDRO CHENALHO (DGE),CHIAPAS,CHENALHÓ,SUSPENDIDA,16.89361111,-92.62555556,1537.0,2243,11799,0,0,0,0,0,2243,2001-01-01,2009-06-30,True
07150,Chiapas,SAN PEDRO CHIAPAS,CHIAPAS,VILLA CORZO,SUSPENDIDA,16.05,-93.08333333,758.0,0,8246,0,0,0,0,0,0,,,False
07151,Chiapas,SAN QUINTIN (CFE),CHIAPAS,OCOSINGO,OPERANDO,16.40583333,-91.34583333,200.0,1077,9103,0,2,0,0,0,1075,2012-08-20,2018-05-30,True
07152,Chiapas,SANTA CECILIA (CFE),CHIAPAS,LAS MARGARITAS,SUSPENDIDA,16.36666667,-91.43333333,254.0,0,6174,0,0,0,0,0,0,,,False
07153,Chiapas,SANTA CRUZ,CHIAPAS,REFORMA,OPERANDO,17.8,-93.16,30.0,6688,12610,0,3,0,0,0,6685,2003-01-01,2024-01-01,True
07154,Chiapas,SANTA ELENA (CFE),CHIAPAS,LAS MARGARITAS,SUSPENDIDA,16.11666667,-91.48333333,720.0,0,9220,0,0,0,0,0,0,,,False
07155,Chiapas,SANTA ISABEL,CHIAPAS,LA CONCORDIA,SUSPENDIDA,16.0,-92.51666667,570.0,0,6656,0,0,0,0,0,0,,,False
07156,Chiapas,SANTA MARIA,CHIAPAS,HIDALGO,OPERANDO,16.93888889,-93.82083333,345.0,8004,14161,0,11,0,0,0,7993,2001-01-01,2023-12-31,True
07157,Chiapas,SANTO DOMINGO,CHIAPAS,UNIÓN JUÁREZ,OPERANDO,15.0275,-92.10416667,859.0,7180,19542,0,4,0,0,0,7176,2001-01-01,2023-10-31,True
07158,Chiapas,SAYULA,CHIAPAS,OSTUACÁN,SUSPENDIDA,17.38333333,-93.41666667,180.0,1461,7453,0,1,0,0,0,1460,2017-01-01,2021-12-31,True
07159,Chiapas,SILTEPEC,CHIAPAS,SILTEPEC,SUSPENDIDA,15.55694444,-92.3225,1580.0,0,5570,0,0,0,0,0,0,,,False
07160,Chiapas,SIMOJOVEL (DGE),CHIAPAS,SIMOJOVEL,OPERANDO,17.14,-92.71416667,660.0,7958,12390,0,5,0,0,0,7953,2001-01-01,2023-12-31,True
07161,Chiapas,SOCOLTENANGO (CFE),CHIAPAS,SOCOLTENANGO,SUSPENDIDA,16.24416667,-92.35138889,894.0,789,9669,0,0,0,0,0,789,2001-01-01,2003-02-28,True
07162,Chiapas,SOYALO (CFE),CHIAPAS,SOYALÓ,OPERANDO,16.89027778,-92.92361111,1175.0,7523,12237,0,23,0,0,0,7500,2001-01-01,2021-11-12,True
07163,Chiapas,SUCHIATE I,CHIAPAS,SUCHIATE,OPERANDO,14.71444444,-92.14888889,34.0,4426,14636,0,16,0,0,0,4410,2001-03-18,2025-09-01,True
07164,Chiapas,TAPACHULA (OBS),CHIAPAS,TAPACHULA,OPERANDO,14.92083333,-92.25,193.0,5887,18715,0,20,0,0,0,5867,2001-01-01,2023-12-31,True
07165,Chiapas,TUXTLA GUTIERREZ (OBS),CHIAPAS,TUXTLA GUTIÉRREZ,OPERANDO,16.75,-93.13333333,570.0,5528,16462,0,11,0,0,0,5517,2001-01-01,2023-12-31,True
07166,Chiapas,TALISMAN I,CHIAPAS,TUXTLA CHICO,SUSPENDIDA,14.96305556,-92.14722222,340.0,4005,19974,0,2,0,0,0,4003,2001-01-01,2017-05-31,True
07167,Chiapas,TAPILULA,CHIAPAS,TAPILULA,OPERANDO,17.24861111,-93.01333333,780.0,6639,9524,0,14,0,0,0,6625,2002-01-01,2024-03-31,True
07168,Chiapas,TONALA (DGE),CHIAPAS,TONALÁ,SUSPENDIDA,16.08416667,-93.74388889,55.0,3364,14228,0,1,0,0,0,3363,2001-01-01,2013-12-30,True
07169,Chiapas,TUMBALA (CFE),CHIAPAS,TUMBALÁ,OPERANDO,17.26666667,-92.3,1063.0,1648,12935,0,7,0,0,0,1641,2011-08-01,2021-08-16,True
07170,Chiapas,TZIMBAC,CHIAPAS,FRANCISCO LEÓN,SUSPENDIDA,17.24027778,-93.23888889,740.0,0,7722,0,0,0,0,0,0,,,False
07171,Chiapas,TZIMOL (CFE),CHIAPAS,TZIMOL,SUSPENDIDA,16.2,-92.26666667,1380.0,0,7756,0,0,0,0,0,0,,,False
07172,Chiapas,UNION JUAREZ,CHIAPAS,UNIÓN JUÁREZ,OPERANDO,15.0625,-92.08055556,1300.0,6052,16884,0,0,0,0,0,6052,2001-01-01,2023-10-26,True
07173,Chiapas,VENUSTIANO CARRANZA (CFE),CHIAPAS,VENUSTIANO CARRANZA,SUSPENDIDA,16.33805556,-92.56388889,780.0,0,3804,0,0,0,0,0,0,,,False
07174,Chiapas,VILLA CORSO (CFE),CHIAPAS,VILLA CORZO,SUSPENDIDA,16.19444444,-93.2625,600.0,4018,9099,0,0,0,0,0,4018,2001-01-01,2012-06-30,True
07175,Chiapas,VILLAFLORES (SMN),CHIAPAS,VILLAFLORES,OPERANDO,16.22888889,-93.2625,554.0,7274,24593,0,169,0,0,0,7105,2001-01-01,2023-11-30,True
07176,Chiapas,TUXTLA GUTIERREZ (CFE),CHIAPAS,TUXTLA GUTIÉRREZ,OPERANDO,16.76166667,-93.10277778,532.0,7179,10135,0,124,0,0,0,7055,2001-01-01,2021-12-31,True
07177,Chiapas,YAJALON (CFE),CHIAPAS,YAJALÓN,OPERANDO,17.16666667,-92.31666667,660.0,3104,13952,0,6,0,0,0,3098,2013-11-01,2025-01-01,True
07178,Chiapas,YAMONHO,CHIAPAS,TECPATÁN,OPERANDO,17.11666667,-93.33055556,280.0,8312,11976,0,33,0,0,0,8279,2001-01-16,2023-12-31,True
07179,Chiapas,ALTAMIRANO (CFE),CHIAPAS,ALTAMIRANO,SUSPENDIDA,16.68333333,-92.0,1250.0,0,9893,0,0,0,0,0,0,,,False
07180,Chiapas,JALTENANGO (CFE),CHIAPAS,ÁNGEL ALBINO CORZO,OPERANDO,15.87083333,-92.72388889,640.0,6232,11171,0,25,0,0,0,6207,2001-01-01,2023-11-30,True
07181,Chiapas,ARCO DE PIEDRA (CFE),CHIAPAS,VENUSTIANO CARRANZA,SUSPENDIDA,16.18333333,-92.63333333,680.0,0,1795,0,0,0,0,0,0,,,False
07182,Chiapas,ARRIAGA (DGE),CHIAPAS,ARRIAGA,OPERANDO,16.24166667,-93.90833333,64.0,8339,7903,0,92,0,0,0,8247,2001-01-01,2025-12-30,True
07183,Chiapas,BENITO JUAREZ (CFE),CHIAPAS,LA CONCORDIA,SUSPENDIDA,16.04166667,-92.8175,550.0,301,7211,0,0,0,0,0,301,2020-11-01,2021-08-30,True
07184,Chiapas,VILLA DE CHIAPILLA (CFE),CHIAPAS,CHIAPILLA,SUSPENDIDA,16.56944444,-92.72,555.0,304,9953,0,0,0,0,0,304,2001-01-01,2001-10-31,True
07185,Chiapas,ESCUINTLA (SMN),CHIAPAS,ESCUINTLA,SUSPENDIDA,15.31666667,-92.66666667,80.0,0,10579,0,0,0,0,0,0,,,False
07186,Chiapas,FINCA EL ESCALON,CHIAPAS,AMATÁN,OPERANDO,17.35,-92.83333333,680.0,4040,6071,0,13,0,0,0,4027,2012-09-01,2023-12-31,True
07187,Chiapas,FINCA LA PATRIA,CHIAPAS,TAPACHULA,SUSPENDIDA,15.115,-92.23194444,1060.0,2708,3174,0,0,0,0,0,2708,2002-01-01,2009-05-31,True
07188,Chiapas,IXTAPA (CFE),CHIAPAS,IXTAPA,SUSPENDIDA,16.80277778,-92.90416667,1120.0,4141,18937,0,0,0,0,0,4141,2001-01-01,2012-07-31,True
07189,Chiapas,LA CONCORDIA (SMN),CHIAPAS,LA CONCORDIA,SUSPENDIDA,16.08333333,-92.63333333,540.0,0,3562,0,0,0,0,0,0,,,False
07190,Chiapas,LA TRINITARIA (CFE),CHIAPAS,LA TRINITARIA,OPERANDO,16.11777778,-92.05166667,1540.0,6814,9252,0,0,0,0,0,6814,2001-01-01,2019-09-30,True
07191,Chiapas,MALPASO,CHIAPAS,TAPACHULA,OPERANDO,14.91972222,-92.25694444,200.0,7343,14366,0,22,0,0,0,7321,2001-01-01,2023-12-31,True
07192,Chiapas,OCOSINGO (CFE),CHIAPAS,OCOSINGO,SUSPENDIDA,16.9,-92.1,978.0,0,8793,0,0,0,0,0,0,,,False
07193,Chiapas,PICHUCALCO (DGE),CHIAPAS,PICHUCALCO,OPERANDO,17.50861111,-93.12,50.0,5925,12879,0,82,0,0,0,5843,2001-01-01,2022-08-11,True
07194,Chiapas,RAYON (CFE),CHIAPAS,RAYÓN,SUSPENDIDA,17.2,-93.0,1340.0,0,3622,0,0,0,0,0,0,,,False
07195,Chiapas,SABANILLA (CFE),CHIAPAS,SABANILLA,OPERANDO,17.28583333,-92.55277778,300.0,2192,9493,0,1,0,0,0,2191,2001-01-01,2021-10-31,True
07196,Chiapas,SALTO DE AGUA (SMN),CHIAPAS,SALTO DE AGUA,SUSPENDIDA,17.55,-92.33333333,124.0,0,7477,0,0,0,0,0,0,,,False
07197,Chiapas,SANTA ISABEL (CFE),CHIAPAS,LA CONCORDIA,SUSPENDIDA,16.25,-92.86666667,570.0,0,1430,0,0,0,0,0,0,,,False
07198,Chiapas,SIMOJOVEL (SMN),CHIAPAS,SIMOJOVEL,SUSPENDIDA,17.13333333,-92.71666667,660.0,0,12061,0,0,0,0,0,0,,,False
07199,Chiapas,TANQUE REGULADOR (CFE),CHIAPAS,TAPACHULA,SUSPENDIDA,14.83333333,-92.28333333,80.0,0,6526,0,0,0,0,0,0,,,False
07200,Chiapas,TAPACHULA (DGE),CHIAPAS,TAPACHULA,OPERANDO,14.90805556,-92.26055556,170.0,8921,17652,0,108,0,0,0,8813,2001-01-01,2025-12-30,True
07201,Chiapas,TONALA (SMN),CHIAPAS,TONALÁ,SUSPENDIDA,16.08333333,-93.73333333,50.0,273,18172,0,0,0,0,0,273,2001-01-01,2001-09-30,True
07202,Chiapas,TUXTLA GUTIERREZ (DGE),CHIAPAS,TUXTLA GUTIÉRREZ,OPERANDO,16.75277778,-93.11666667,543.0,9061,18289,0,23,0,0,0,9038,2001-01-01,2025-12-31,True
07203,Chiapas,VENUSTIANO CARRANZA,CHIAPAS,VENUSTIANO CARRANZA,SUSPENDIDA,16.33694444,-92.56416667,790.0,1857,17998,0,0,0,0,0,1857,2001-01-01,2006-10-31,True
07204,Chiapas,VILLAFLORES (DGE),CHIAPAS,VILLAFLORES,SUSPENDIDA,16.23333333,-93.26666667,560.0,0,12026,0,0,0,0,0,0,,,False
07205,Chiapas,COMITAN (DGE),CHIAPAS,COMITÁN DE DOMÍNGUEZ,OPERANDO,16.25111111,-92.13416667,1630.0,8734,14440,0,6,0,0,0,8728,2001-01-01,2025-11-01,True
07206,Chiapas,BOCA DEL CIELO,CHIAPAS,TONALÁ,SUSPENDIDA,15.85083333,-93.67083333,1.0,0,2433,0,0,0,0,0,0,,,False
07207,Chiapas,LARRAINZAR,CHIAPAS,LARRÁINZAR,OPERANDO,16.88694444,-92.71555556,2000.0,8534,9428,0,7,0,0,0,8527,2001-01-01,2025-05-29,True
07208,Chiapas,NOVILLERO,CHIAPAS,MAPASTEPEC,OPERANDO,15.50055556,-92.94305556,72.0,8371,10037,0,28,0,0,0,8343,2001-09-01,2025-08-01,True
07209,Chiapas,AGUA VERDE,CHIAPAS,CHILÓN,SUSPENDIDA,17.03333333,-91.86666667,1240.0,0,1726,0,0,0,0,0,0,,,False
07210,Chiapas,FINCA AGUA AZUL (CFE),CHIAPAS,TUMBALÁ,SUSPENDIDA,17.26666667,-92.13333333,260.0,0,2766,0,0,0,0,0,0,,,False
07211,Chiapas,LA MESILLA (CFE),CHIAPAS,SOCOLTENANGO,SUSPENDIDA,16.06666667,-92.61666667,550.0,0,2859,0,0,0,0,0,0,,,False
07212,Chiapas,ZINACANTAN,CHIAPAS,ZINACANTÁN,SUSPENDIDA,16.79166667,-92.68,2300.0,0,807,0,0,0,0,0,0,,,False
07215,Chiapas,ALTAMIRANO (DGE),CHIAPAS,ALTAMIRANO,SUSPENDIDA,16.73333333,-92.03333333,1240.0,0,5305,0,0,0,0,0,0,,,False
07216,Chiapas,BAJADA GRANDE,CHIAPAS,PALENQUE,SUSPENDIDA,17.70138889,-92.26083333,20.0,0,2322,0,0,0,0,0,0,,,False
07217,Chiapas,SOLOSUCHIAPA,CHIAPAS,SOLOSUCHIAPA,OPERANDO,17.42833333,-93.02861111,165.0,7726,5801,0,8,0,0,0,7718,2002-02-20,2024-01-01,True
07218,Chiapas,E.T.A. 012 VENUSTIANO CARRANZA,CHIAPAS,VENUSTIANO CARRANZA,SUSPENDIDA,16.35,-92.55,795.0,0,1570,0,0,0,0,0,0,,,False
07219,Chiapas,JIQUIPILAS,CHIAPAS,JIQUIPILAS,SUSPENDIDA,16.66666667,-93.65,540.0,0,3768,0,0,0,0,0,0,,,False
07220,Chiapas,E.T.A. 259 SALTO DE AGUA,CHIAPAS,SALTO DE AGUA,SUSPENDIDA,17.6,-92.36666667,20.0,0,1641,0,0,0,0,0,0,,,False
07223,Chiapas,SAN LUIS,CHIAPAS,SUCHIAPA,SUSPENDIDA,16.63333333,-93.06666667,480.0,0,1245,0,0,0,0,0,0,,,False
07224,Chiapas,CHICOMUSELO,CHIAPAS,CHICOMUSELO,OPERANDO,15.75166667,-92.27361111,550.0,6361,8337,0,57,0,0,0,6304,2001-01-01,2023-11-30,True
07226,Chiapas,REFORMA II,CHIAPAS,LA CONCORDIA,OPERANDO,15.9,-92.93333333,700.0,7577,8952,0,2,0,0,0,7575,2001-01-01,2021-12-31,True
07227,Chiapas,TALISMAN II,CHIAPAS,TUXTLA CHICO,SUSPENDIDA,14.95916667,-92.16833333,380.0,3258,6152,0,1,0,0,0,3257,2001-01-01,2014-02-13,True
07228,Chiapas,TRES PICOS,CHIAPAS,TONALÁ,OPERANDO,15.875,-93.54583333,20.0,7449,8196,0,51,0,0,0,7398,2003-09-01,2025-12-02,True
07229,Chiapas,SANTO DOMINGO (CFE),CHIAPAS,CHIAPA DE CORZO,OPERANDO,16.45361111,-93.05555556,500.0,7544,8762,0,21,0,0,0,7523,2001-01-01,2023-12-31,True
07230,Chiapas,SAN MIGUEL (CFE),CHIAPAS,CHICOMUSELO,OPERANDO,15.70861111,-92.20861111,600.0,7728,8158,0,91,0,0,0,7637,2001-01-01,2023-09-24,True
07231,Chiapas,TZISCAO (CFE),CHIAPAS,LA TRINITARIA,SUSPENDIDA,16.08333333,-91.66666667,1475.0,700,7244,0,0,0,0,0,700,2001-01-01,2003-02-28,True
07233,Chiapas,TILTEPEC,CHIAPAS,JIQUIPILAS,SUSPENDIDA,16.39444444,-93.86805556,680.0,0,2261,0,0,0,0,0,0,,,False
07234,Chiapas,C.A.E. LAS PALMAS,CHIAPAS,HUEHUETÁN,SUSPENDIDA,15.03333333,-92.4,42.0,0,822,0,0,0,0,0,0,,,False
07236,Chiapas,REVOLUCION MEXICANA,CHIAPAS,VILLA CORZO,OPERANDO,16.16305556,-93.07638889,540.0,8245,7753,0,80,0,0,0,8165,2001-01-01,2023-12-31,True
07237,Chiapas,GUERRERO,CHIAPAS,VILLA CORZO,SUSPENDIDA,16.05,-92.98333333,612.0,0,6320,0,0,0,0,0,0,,,False
07238,Chiapas,EL SABINAL,CHIAPAS,TUXTLA GUTIÉRREZ,OPERANDO,16.75916667,-93.08861111,498.0,6406,4832,0,39,0,0,0,6367,2005-01-02,2024-04-01,True
07239,Chiapas,VILLA DE ACALA (CFE),CHIAPAS,ACALA,OPERANDO,16.66222222,-92.95638889,420.0,7608,2284,0,23,0,0,0,7585,2001-01-01,2021-12-31,True
07243,Chiapas,COAPILLA,CHIAPAS,COAPILLA,OPERANDO,17.1275,-93.16055556,1618.0,2997,0,0,4,0,0,0,2993,2012-12-05,2023-06-30,True
07244,Chiapas,SUCHIATE II,CHIAPAS,SUCHIATE,SUSPENDIDA,14.69944444,-92.14916667,35.0,330,0,0,31,0,0,0,299,2012-10-05,2015-09-30,True
07245,Chiapas,PLUTARCO ELIAS CALLES,CHIAPAS,PICHUCALCO,OPERANDO,17.60277778,-93.39138889,45.0,3475,0,0,156,0,0,0,3319,2012-10-01,2023-09-30,True
07246,Chiapas,EL BOSQUE,CHIAPAS,EL BOSQUE,SUSPENDIDA,17.05805556,-92.72361111,1106.0,1154,0,0,0,0,0,0,1154,2012-11-01,2016-04-30,True
07247,Chiapas,EL CORO,CHIAPAS,EL PORVENIR,SUSPENDIDA,15.44666667,-92.275,2902.0,1317,0,0,5,0,0,0,1312,2012-10-01,2019-09-30,True
07248,Chiapas,BEJUCAL DE OCAMPO,CHIAPAS,BEJUCAL DE OCAMPO,OPERANDO,15.45472222,-92.15833333,2340.0,1517,0,0,7,0,0,0,1510,2012-08-16,2025-12-31,True
07249,Chiapas,MARAVILLA TENEJAPA,CHIAPAS,MARAVILLA TENEJAPA,OPERANDO,16.14194444,-91.2975,392.0,3033,0,0,7,0,0,0,3026,2012-08-19,2021-10-30,True
07251,Chiapas,ECHEGARAY,CHIAPAS,PIJIJIAPAN,SUSPENDIDA,15.65444444,-93.15,53.0,488,0,0,0,0,0,0,488,2014-10-01,2016-01-31,True
07252,Chiapas,LA GRANDEZA,CHIAPAS,LA GRANDEZA,SUSPENDIDA,15.52111111,-92.22638889,1940.0,181,0,0,0,0,0,0,181,2014-04-01,2014-09-30,True
07253,Chiapas,EL MOZOTAL,CHIAPAS,MOTOZINTLA,OPERANDO,15.42638889,-92.34138889,3053.0,2676,0,0,10,0,0,0,2666,2012-04-02,2021-02-28,True
07315,Chiapas,PASO DEL CAYUCO (CFE),CHIAPAS,CHILÓN,OPERANDO,17.24583333,-92.12361111,291.0,7276,7295,0,1,0,0,0,7275,2001-01-01,2021-12-31,True
07316,Chiapas,EL AMBAR DE ECHEVERRIA,CHIAPAS,LA CONCORDIA,SUSPENDIDA,16.0975,-92.83333333,550.0,0,3652,0,0,0,0,0,0,,,False
07318,Chiapas,LA GLORIA,CHIAPAS,ARRIAGA,SUSPENDIDA,16.2,-93.93333333,30.0,0,1919,0,0,0,0,0,0,,,False
