estado_ruta,archivo,ruta_relativa,id_estacion_archivo,id_estacion_cabecera,nombre_estacion,estado_cabecera,municipio,situacion_operativa,cve_omm,latitud,longitud,altitud_msnm,encoding,cabecera_detectada,tabla_detectada,header_tokens,orden_esperado,id_archivo_vs_cabecera_ok,coord_dentro_bbox_mexico_aprox,fecha_min_historica,fecha_max_historica,fecha_min_periodo,fecha_max_periodo,registros_historicos,registros_en_periodo,fechas_invalidas,registros_fuera_periodo,dias_unicos_en_periodo,duplicados_fecha_en_periodo,nota
Aguascalientes,dia01001.txt,Aguascalientes\diario\dia01001.txt,01001,01001,AGUASCALIENTES (OBS),AGUASCALIENTES,AGUASCALIENTES,OPERANDO,76571,21.85027778,-102.2908333,1890.8,utf-8-sig,True,True,FECHA | PRECIP | EVAP | TMAX | TMIN,True,True,True,1878-01-01,2026-03-06,2001-01-01,2025-12-31,28418,9061,0,19357,9061,0,
Aguascalientes,dia01003.txt,Aguascalientes\diario\dia01003.txt,01003,01003,CALVILLO (SMN),AGUASCALIENTES,CALVILLO,SUSPENDIDA,,21.88333333,-102.7188889,1640.0,utf-8-sig,True,True,FECHA | PRECIP | EVAP | TMAX | TMIN,True,True,True,1932-01-01,1988-12-31,,,18487,0,0,18487,0,0,
Aguascalientes,dia01004.txt,Aguascalientes\diario\dia01004.txt,01004,01004,CAÑADA HONDA,AGUASCALIENTES,AGUASCALIENTES,OPERANDO,,22.00083333,-102.1988889,1925.0,utf-8-sig,True,True,FECHA | PRECIP | EVAP | TMAX | TMIN,True,True,True,1970-03-06,2025-12-31,2001-01-01,2025-12-31,20297,9068,0,11229,9068,0,
Aguascalientes,dia01005.txt,Aguascalientes\diario\dia01005.txt,01005,01005,PRESA EL NIAGARA,AGUASCALIENTES,AGUASCALIENTES,OPERANDO,,21.78055556,-102.3716667,1844.0,utf-8-sig,True,True,FECHA | PRECIP | EVAP | TMAX | TMIN,True,True,True,1957-04-03,2026-03-05,2001-01-01,2025-12-31,25158,9130,0,16028,9130,0,
Aguascalientes,dia01006.txt,Aguascalientes\diario\dia01006.txt,01006,01006,EL TULE (SMN),AGUASCALIENTES,ASIENTOS,SUSPENDIDA,,22.08166667,-102.0913889,1960.0,utf-8-sig,True,True,FECHA | PRECIP | EVAP | TMAX | TMIN,True,True,True,1941-12-01,1988-12-31,,,16997,0,0,16997,0,0,
Aguascalientes,dia01007.txt,Aguascalientes\diario\dia01007.txt,01007,01007,JESUS MARIA (SMN),AGUASCALIENTES,JESÚS MARÍA,SUSPENDIDA,,21.96222222,-102.3447222,1880.0,utf-8-sig,True,True,FECHA | PRECIP | EVAP | TMAX | TMIN,True,True,True,1941-01-01,1988-12-30,,,16916,0,0,16916,0,0,
Aguascalientes,dia01008.txt,Aguascalientes\diario\dia01008.txt,01008,01008,PUERTO DE LA CONCEPCION,AGUASCALIENTES,TEPEZALÁ,OPERANDO,,22.20277778,-102.135,2322.8,utf-8-sig,True,True,FECHA | PRECIP | EVAP | TMAX | TMIN,True,True,True,1959-07-15,2026-03-05,2001-01-01,2025-12-31,24340,9131,0,15209,9131,0,
Aguascalientes,dia01009.txt,Aguascalientes\diario\dia01009.txt,01009,01009,LA LABOR (SMN),AGUASCALIENTES,CALVILLO,SUSPENDIDA,,21.96222222,-102.6947222,1740.0,utf-8-sig,True,True,FECHA | PRECIP | EVAP | TMAX | TMIN,True,True,True,1944-01-01,1988-12-31,,,14981,0,0,14981,0,0,
Aguascalientes,dia01010.txt,Aguascalientes\diario\dia01010.txt,01010,01010,LA TINAJA,AGUASCALIENTES,SAN JOSÉ DE GRACIA,OPERANDO,,22.16444444,-102.5541667,2525.7,utf-8-sig,True,True,FECHA | PRECIP | EVAP | TMAX | TMIN,True,True,True,1961-08-01,2024-09-30,2001-01-01,2024-09-30,23038,8643,0,14395,8643,0,
Aguascalientes,dia01011.txt,Aguascalientes\diario\dia01011.txt,01011,01011,MALPASO,AGUASCALIENTES,CALVILLO,OPERANDO,,21.86,-102.6638889,1730.2,utf-8-sig,True,True,FECHA | PRECIP | EVAP | TMAX | TMIN,True,True,True,1949-03-19,2025-12-31,2001-01-01,2025-12-31,27958,9100,0,18858,9100,0,
Aguascalientes,dia01012.txt,Aguascalientes\diario\dia01012.txt,01012,01012,PRESA MEDIA LUNA,AGUASCALIENTES,CALVILLO,OPERANDO,,21.79444444,-102.8016667,1588.7,utf-8-sig,True,True,FECHA | PRECIP | EVAP | TMAX | TMIN,True,True,True,1970-07-13,2026-03-05,2001-01-01,2025-12-28,20279,9126,0,11153,9126,0,
Aguascalientes,dia01013.txt,Aguascalientes\diario\dia01013.txt,01013,01013,MESILLAS,AGUASCALIENTES,TEPEZALÁ,OPERANDO,,22.31333333,-102.1658333,2020.5,utf-8-sig,True,True,FECHA | PRECIP | EVAP | TMAX | TMIN,True,True,True,1963-09-01,2025-11-30,2001-01-01,2025-11-30,22379,8794,0,13585,8794,0,
Aguascalientes,dia01014.txt,Aguascalientes\diario\dia01014.txt,01014,01014,PABELLON CAMPO EXPERIMENTAL,AGUASCALIENTES,PABELLÓN DE ARTEAGA,OPERANDO,,22.16694444,-102.2927778,1933.7,utf-8-sig,True,True,FECHA | PRECIP | EVAP | TMAX | TMIN,True,True,True,1937-09-01,2024-06-30,2001-01-01,2024-06-30,28993,6498,0,22495,6498,0,
Aguascalientes,dia01015.txt,Aguascalientes\diario\dia01015.txt,01015,01015,PALO ALTO,AGUASCALIENTES,EL LLANO,OPERANDO,,21.91638889,-101.9694444,2037.5,utf-8-sig,True,True,FECHA | PRECIP | EVAP | TMAX | TMIN,True,True,True,1967-05-24,2026-01-31,2001-01-01,2025-08-31,21270,8994,0,12276,8994,0,
Aguascalientes,dia01016.txt,Aguascalientes\diario\dia01016.txt,01016,01016,GANADERIA PEÑUELAS,AGUASCALIENTES,AGUASCALIENTES,SUSPENDIDA,,21.71055556,-102.2822222,1850.0,utf-8-sig,True,True,FECHA | PRECIP | EVAP | TMAX | TMIN,True,True,True,1945-04-01,2024-02-29,2022-01-03,2024-02-29,9411,221,0,9190,221,0,
Aguascalientes,dia01017.txt,Aguascalientes\diario\dia01017.txt,01017,01017,PRESA POTRERILLOS,AGUASCALIENTES,SAN JOSÉ DE GRACIA,OPERANDO,,22.23277778,-102.4436111,2171.9,utf-8-sig,True,True,FECHA | PRECIP | EVAP | TMAX | TMIN,True,True,True,1942-04-01,2026-03-05,2001-01-01,2025-12-31,30388,9068,0,21320,9068,0,
Aguascalientes,dia01018.txt,Aguascalientes\diario\dia01018.txt,01018,01018,PRESA PLUTARCO ELIAS CALLES,AGUASCALIENTES,SAN JOSÉ DE GRACIA,OPERANDO,,22.14138889,-102.4152778,2053.1,utf-8-sig,True,True,FECHA | PRECIP | EVAP | TMAX | TMIN,True,True,True,1933-11-01,2026-03-05,2001-01-01,2025-12-31,33719,9123,0,24596,9123,0,
Aguascalientes,dia01019.txt,Aguascalientes\diario\dia01019.txt,01019,01019,PRESA JOCOQUE,AGUASCALIENTES,PABELLÓN DE ARTEAGA,OPERANDO,,22.12805556,-102.3594444,2006.2,utf-8-sig,True,True,FECHA | PRECIP | EVAP | TMAX | TMIN,True,True,True,1942-07-11,2026-03-05,2001-01-01,2025-12-31,30539,9117,0,21422,9117,0,
Aguascalientes,dia01020.txt,Aguascalientes\diario\dia01020.txt,01020,01020,PRESA LA CODORNIZ,AGUASCALIENTES,CALVILLO,OPERANDO,,21.99666667,-102.6741667,1850.2,utf-8-sig,True,True,FECHA | PRECIP | EVAP | TMAX | TMIN,True,True,True,1963-08-01,2026-03-05,2001-01-16,2025-12-31,22762,9054,0,13708,9054,0,
Aguascalientes,dia01021.txt,Aguascalientes\diario\dia01021.txt,01021,01021,RANCHO VIEJO,AGUASCALIENTES,SAN JOSÉ DE GRACIA,OPERANDO,,22.12333333,-102.5111111,2126.6,utf-8-sig,True,True,FECHA | PRECIP | EVAP | TMAX | TMIN,True,True,True,1959-08-01,2025-08-31,2001-01-01,2025-08-31,23717,8636,0,15081,8636,0,
Aguascalientes,dia01022.txt,Aguascalientes\diario\dia01022.txt,01022,01022,SAN BARTOLO,AGUASCALIENTES,AGUASCALIENTES,OPERANDO,,21.74805556,-102.1702778,1997.6,utf-8-sig,True,True,FECHA | PRECIP | EVAP | TMAX | TMIN,True,True,True,1949-05-01,2025-08-31,2001-01-01,2025-08-31,27866,8996,0,18870,8996,0,
Aguascalientes,dia01023.txt,Aguascalientes\diario\dia01023.txt,01023,01023,CALVILLO (DGE),AGUASCALIENTES,CALVILLO,OPERANDO,,21.83666667,-102.7116667,1684.6,utf-8-sig,True,True,FECHA | PRECIP | EVAP | TMAX | TMIN,True,True,True,1959-01-01,2025-02-28,2001-01-01,2025-02-28,22004,7597,0,14407,7597,0,
Aguascalientes,dia01024.txt,Aguascalientes\diario\dia01024.txt,01024,01024,SAN ISIDRO,AGUASCALIENTES,AGUASCALIENTES,OPERANDO,,21.77861111,-102.1038889,2004.4,utf-8-sig,True,True,FECHA | PRECIP | EVAP | TMAX | TMIN,True,True,True,1967-07-12,2025-08-31,2001-01-01,2025-08-31,21063,8906,0,12157,8906,0,
Aguascalientes,dia01025.txt,Aguascalientes\diario\dia01025.txt,01025,01025,SAN FRANCISCO DE LOS ROMO (SMN),AGUASCALIENTES,SAN FRANCISCO DE LOS ROMO,SUSPENDIDA,,22.07722222,-102.2711111,1880.0,utf-8-sig,True,True,FECHA | PRECIP | EVAP | TMAX | TMIN,True,True,True,1926-06-26,1983-12-31,,,17134,0,0,17134,0,0,
Aguascalientes,dia01026.txt,Aguascalientes\diario\dia01026.txt,01026,01026,TEPEZALA,AGUASCALIENTES,TEPEZALÁ,OPERANDO,,22.22361111,-102.1688889,2110.2,utf-8-sig,True,True,FECHA | PRECIP | EVAP | TMAX | TMIN,True,True,True,1962-07-04,2025-08-31,2001-01-01,2025-08-31,22941,8886,0,14055,8886,0,
Aguascalientes,dia01027.txt,Aguascalientes\diario\dia01027.txt,01027,01027,VENADERO (DGE),AGUASCALIENTES,JESÚS MARÍA,OPERANDO,,21.87722222,-102.4633333,2025.6,utf-8-sig,True,True,FECHA | PRECIP | EVAP | TMAX | TMIN,True,True,True,1949-06-01,2025-08-31,2001-01-01,2025-08-31,27662,8851,0,18811,8851,0,
Aguascalientes,dia01028.txt,Aguascalientes\diario\dia01028.txt,01028,01028,VILLA JUAREZ,AGUASCALIENTES,ASIENTOS,OPERANDO,,22.10083333,-102.0677778,1999.3,utf-8-sig,True,True,FECHA | PRECIP | EVAP | TMAX | TMIN,True,True,True,1949-04-08,2025-08-31,2001-01-01,2025-08-31,27638,8999,0,18639,8999,0,
Aguascalientes,dia01029.txt,Aguascalientes\diario\dia01029.txt,01029,01029,ASIENTOS,AGUASCALIENTES,ASIENTOS,OPERANDO,,22.23972222,-102.0888889,2162.8,utf-8-sig,True,True,FECHA | PRECIP | EVAP | TMAX | TMIN,True,True,True,1959-07-14,2020-11-30,2001-01-01,2020-11-30,20962,6484,0,14478,6484,0,
Aguascalientes,dia01030.txt,Aguascalientes\diario\dia01030.txt,01030,01030,AGUASCALIENTES,AGUASCALIENTES,AGUASCALIENTES,OPERANDO,,21.89555556,-102.3086111,1888.7,utf-8-sig,True,True,FECHA | PRECIP | EVAP | TMAX | TMIN,True,True,True,1947-10-01,2026-03-05,2001-01-01,2025-12-31,28523,9011,0,19512,9011,0,
Aguascalientes,dia01031.txt,Aguascalientes\diario\dia01031.txt,01031,01031,EL NOVILLO,AGUASCALIENTES,EL LLANO,OPERANDO,,22.01888889,-101.9991667,2042.6,utf-8-sig,True,True,FECHA | PRECIP | EVAP | TMAX | TMIN,True,True,True,1972-05-01,2025-08-31,2001-01-01,2025-08-31,19369,9009,0,10360,9009,0,
Aguascalientes,dia01032.txt,Aguascalientes\diario\dia01032.txt,01032,01032,LAS FRAGUAS,AGUASCALIENTES,ASIENTOS,OPERANDO,,22.03916667,-101.8925,2086.0,utf-8-sig,True,True,FECHA | PRECIP | EVAP | TMAX | TMIN,True,True,True,1971-05-01,2024-12-31,2001-01-01,2024-12-31,18755,8150,0,10605,8150,0,
Aguascalientes,dia01033.txt,Aguascalientes\diario\dia01033.txt,01033,01033,LOS CONOS,AGUASCALIENTES,EL LLANO,OPERANDO,,21.89777778,-101.9925,2025.9,utf-8-sig,True,True,FECHA | PRECIP | EVAP | TMAX | TMIN,True,True,True,1971-05-01,2026-03-05,2001-01-01,2025-12-31,19864,9114,0,10750,9114,0,
Aguascalientes,dia01034.txt,Aguascalientes\diario\dia01034.txt,01034,01034,SANDOVALES,AGUASCALIENTES,EL LLANO,OPERANDO,,21.885,-102.1091667,2007.0,utf-8-sig,True,True,FECHA | PRECIP | EVAP | TMAX | TMIN,True,True,True,1972-03-21,2026-02-16,2001-01-01,2025-08-31,19433,8948,0,10485,8948,0,
Aguascalientes,dia01035.txt,Aguascalientes\diario\dia01035.txt,01035,01035,SAN FRANCISCO DE LOS VIVEROS,AGUASCALIENTES,EL LLANO,SUSPENDIDA,,21.91194444,-102.13,2020.0,utf-8-sig,True,True,FECHA | PRECIP | EVAP | TMAX | TMIN,True,True,True,1972-04-01,1983-12-31,,,3961,0,0,3961,0,0,
Aguascalientes,dia01036.txt,Aguascalientes\diario\dia01036.txt,01036,01036,SANTA ROSA,AGUASCALIENTES,AGUASCALIENTES,SUSPENDIDA,,21.81666667,-102.3,1860.0,utf-8-sig,True,True,FECHA | PRECIP | EVAP | TMAX | TMIN,True,True,True,1972-03-01,1976-01-31,,,1219,0,0,1219,0,0,
Aguascalientes,dia01041.txt,Aguascalientes\diario\dia01041.txt,01041,01041,PABELLON DE ARTEAGA (SMN),AGUASCALIENTES,PABELLÓN DE ARTEAGA,SUSPENDIDA,,22.15,-102.2833333,1900.0,utf-8-sig,True,True,FECHA | PRECIP | EVAP | TMAX | TMIN,True,True,True,1928-04-12,1960-12-31,,,10095,0,0,10095,0,0,
Aguascalientes,dia01043.txt,Aguascalientes\diario\dia01043.txt,01043,01043,E.T.A. 127 AGUASCALIENTES,AGUASCALIENTES,AGUASCALIENTES,SUSPENDIDA,,21.88333333,-102.3,1855.0,utf-8-sig,True,True,FECHA | PRECIP | EVAP | TMAX | TMIN,True,True,True,1973-08-01,1976-12-31,,,885,0,0,885,0,0,
Aguascalientes,dia01045.txt,Aguascalientes\diario\dia01045.txt,01045,01045,EL TULE (DGE),AGUASCALIENTES,ASIENTOS,OPERANDO,,22.08305556,-102.0911111,1981.7,utf-8-sig,True,True,FECHA | PRECIP | EVAP | TMAX | TMIN,True,True,True,1974-01-01,2025-07-31,2001-01-01,2025-07-31,18328,8589,0,9739,8589,0,
Aguascalientes,dia01046.txt,Aguascalientes\diario\dia01046.txt,01046,01046,LA LABOR (DGE),AGUASCALIENTES,CALVILLO,OPERANDO,,21.96444444,-102.6972222,1784.5,utf-8-sig,True,True,FECHA | PRECIP | EVAP | TMAX | TMIN,True,True,True,1974-01-01,2025-08-31,2001-01-01,2025-08-31,18611,8855,0,9756,8855,0,
Aguascalientes,dia01047.txt,Aguascalientes\diario\dia01047.txt,01047,01047,AGUA ZARCA,AGUASCALIENTES,CALVILLO,SUSPENDIDA,,21.97416667,-102.5844444,2416.8,utf-8-sig,True,True,FECHA | PRECIP | EVAP | TMAX | TMIN,True,True,True,1975-08-20,2016-10-31,2001-01-01,2016-10-31,14300,5472,0,8828,5472,0,
Aguascalientes,dia01057.txt,Aguascalientes\diario\dia01057.txt,01057,01057,VENADERO (SMN),AGUASCALIENTES,JESÚS MARÍA,SUSPENDIDA,,21.8725,-102.4666667,2000.0,utf-8-sig,True,True,FECHA | PRECIP | EVAP | TMAX | TMIN,True,True,True,1942-01-01,1960-12-31,,,6848,0,0,6848,0,0,
Aguascalientes,dia01062.txt,Aguascalientes\diario\dia01062.txt,01062,01062,ARELLANO,AGUASCALIENTES,AGUASCALIENTES,OPERANDO,,21.80194444,-102.2730556,1910.7,utf-8-sig,True,True,FECHA | PRECIP | EVAP | TMAX | TMIN,True,True,True,1949-06-01,2025-08-31,2001-01-01,2025-08-31,19360,8978,0,10382,8978,0,
Aguascalientes,dia01063.txt,Aguascalientes\diario\dia01063.txt,01063,01063,PEÑUELAS (SMN),AGUASCALIENTES,AGUASCALIENTES,SUSPENDIDA,,21.725,-102.275,1870.0,utf-8-sig,True,True,FECHA | PRECIP | EVAP | TMAX | TMIN,True,True,True,1942-06-01,1960-12-31,,,6634,0,0,6634,0,0,
Aguascalientes,dia01073.txt,Aguascalientes\diario\dia01073.txt,01073,01073,LA TINAJA,AGUASCALIENTES,EL LLANO,OPERANDO,,21.80944444,-102.1297222,2027.1,utf-8-sig,True,True,FECHA | PRECIP | EVAP | TMAX | TMIN,True,True,True,1971-05-01,2025-08-31,2001-01-01,2025-08-31,18079,8978,0,9101,8978,0,
Aguascalientes,dia01074.txt,Aguascalientes\diario\dia01074.txt,01074,01074,CIENEGUILLA,AGUASCALIENTES,AGUASCALIENTES,OPERANDO,,21.73111111,-102.4527778,1838.8,utf-8-sig,True,True,FECHA | PRECIP | EVAP | TMAX | TMIN,True,True,True,1979-09-07,2024-09-30,2001-01-01,2024-09-30,16343,8619,0,7724,8619,0,
Aguascalientes,dia01075.txt,Aguascalientes\diario\dia01075.txt,01075,01075,MONTORO,AGUASCALIENTES,AGUASCALIENTES,OPERANDO,,21.75722222,-102.3022222,1870.5,utf-8-sig,True,True,FECHA | PRECIP | EVAP | TMAX | TMIN,True,True,True,1979-09-13,2025-08-31,2001-01-01,2025-08-31,16640,8948,0,7692,8948,0,
Aguascalientes,dia01076.txt,Aguascalientes\diario\dia01076.txt,01076,01076,LOS NEGRITOS,AGUASCALIENTES,AGUASCALIENTES,SUSPENDIDA,,21.87055556,-102.3491667,1887.1,utf-8-sig,True,True,FECHA | PRECIP | EVAP | TMAX | TMIN,True,True,True,1979-12-01,2017-12-31,2001-01-01,2017-12-31,13650,6020,0,7630,6020,0,
Aguascalientes,dia01077.txt,Aguascalientes\diario\dia01077.txt,01077,01077,EL OCOTE,AGUASCALIENTES,AGUASCALIENTES,OPERANDO,,21.78277778,-102.5175,2044.6,utf-8-sig,True,True,FECHA | PRECIP | EVAP | TMAX | TMIN,True,True,True,1979-09-01,2021-07-31,2001-01-01,2021-07-31,14702,7000,0,7702,7000,0,
Aguascalientes,dia01078.txt,Aguascalientes\diario\dia01078.txt,01078,01078,EL OCOTE,AGUASCALIENTES,CALVILLO,OPERANDO,,21.89027778,-102.8325,2328.9,utf-8-sig,True,True,FECHA | PRECIP | EVAP | TMAX | TMIN,True,True,True,1980-04-01,2024-12-31,2001-01-01,2024-12-31,15690,8209,0,7481,8209,0,
Aguascalientes,dia01079.txt,Aguascalientes\diario\dia01079.txt,01079,01079,PEÑUELAS (DGE),AGUASCALIENTES,AGUASCALIENTES,OPERANDO,,21.72583333,-102.2722222,1900.3,utf-8-sig,True,True,FECHA | PRECIP | EVAP | TMAX | TMIN,True,True,True,1979-08-10,2025-12-31,2001-01-01,2025-12-31,16703,9072,0,7631,9072,0,
Aguascalientes,dia01080.txt,Aguascalientes\diario\dia01080.txt,01080,01080,PRESA CANUTILLO,AGUASCALIENTES,JESÚS MARÍA,OPERANDO,,21.8375,-102.5222222,1949.7,utf-8-sig,True,True,FECHA | PRECIP | EVAP | TMAX | TMIN,True,True,True,1979-09-21,2025-11-30,2001-01-01,2025-11-30,16851,9078,0,7773,9078,0,
Aguascalientes,dia01081.txt,Aguascalientes\diario\dia01081.txt,01081,01081,RANCHO SECO,AGUASCALIENTES,ASIENTOS,OPERANDO,,22.08833333,-101.9672222,2067.2,utf-8-sig,True,True,FECHA | PRECIP | EVAP | TMAX | TMIN,True,True,True,1979-10-01,2025-08-31,2001-01-01,2025-08-31,16681,9009,0,7672,9009,0,
Aguascalientes,dia01082.txt,Aguascalientes\diario\dia01082.txt,01082,01082,RINCON DE ROMOS,AGUASCALIENTES,RINCÓN DE ROMOS,OPERANDO,,22.23111111,-102.3152778,1965.3,utf-8-sig,True,True,FECHA | PRECIP | EVAP | TMAX | TMIN,True,True,True,1979-08-21,2025-08-27,2001-01-01,2025-08-27,16331,8527,0,7804,8527,0,
Aguascalientes,dia01083.txt,Aguascalientes\diario\dia01083.txt,01083,01083,SAN FRANCISCO DE LOS ROMO (DGE),AGUASCALIENTES,SAN FRANCISCO DE LOS ROMO,OPERANDO,,22.07888889,-102.2730556,1909.1,utf-8-sig,True,True,FECHA | PRECIP | EVAP | TMAX | TMIN,True,True,True,1979-09-01,2025-08-31,2001-01-01,2025-08-31,15987,8333,0,7654,8333,0,
Aguascalientes,dia01084.txt,Aguascalientes\diario\dia01084.txt,01084,01084,SAN GIL,AGUASCALIENTES,ASIENTOS,OPERANDO,,22.20833333,-102.0222222,2032.2,utf-8-sig,True,True,FECHA | PRECIP | EVAP | TMAX | TMIN,True,True,True,1979-10-01,2025-08-31,2001-01-01,2025-08-31,16740,9009,0,7731,9009,0,
Aguascalientes,dia01085.txt,Aguascalientes\diario\dia01085.txt,01085,01085,TEPETATILLO,AGUASCALIENTES,ASIENTOS,OPERANDO,,22.09111111,-102.1813889,2039.7,utf-8-sig,True,True,FECHA | PRECIP | EVAP | TMAX | TMIN,True,True,True,1979-10-10,2025-08-31,2001-01-01,2025-08-31,16294,8793,0,7501,8793,0,
Aguascalientes,dia01088.txt,Aguascalientes\diario\dia01088.txt,01088,01088,COSIO,AGUASCALIENTES,COSÍO,OPERANDO,,22.36277778,-102.2969444,2022.7,utf-8-sig,True,True,FECHA | PRECIP | EVAP | TMAX | TMIN,True,True,True,1978-08-01,2026-03-04,2001-01-01,2025-12-31,17043,9125,0,7918,9125,0,
Aguascalientes,dia01089.txt,Aguascalientes\diario\dia01089.txt,01089,01089,PRESA 50 ANIVERSARIO,AGUASCALIENTES,SAN JOSÉ DE GRACIA,OPERANDO,,22.18861111,-102.4641667,2104.3,utf-8-sig,True,True,FECHA | PRECIP | EVAP | TMAX | TMIN,True,True,True,1980-11-04,2025-08-15,2001-01-01,2025-08-15,14846,7522,0,7324,7522,0,
Aguascalientes,dia01090.txt,Aguascalientes\diario\dia01090.txt,01090,01090,JESUS MARIA (DGE),AGUASCALIENTES,JESÚS MARÍA,OPERANDO,,21.96222222,-102.3505556,1880.9,utf-8-sig,True,True,FECHA | PRECIP | EVAP | TMAX | TMIN,True,True,True,1979-05-01,2025-07-31,2001-01-01,2025-07-31,16834,8976,0,7858,8976,0,
Aguascalientes,dia01091.txt,Aguascalientes\diario\dia01091.txt,01091,01091,LOS ALISOS,AGUASCALIENTES,CALVILLO,OPERANDO,,21.74222222,-102.7169444,2216.0,utf-8-sig,True,True,FECHA | PRECIP | EVAP | TMAX | TMIN,True,True,True,1980-07-01,2024-12-31,2001-01-01,2024-12-31,15624,8339,0,7285,8339,0,
Aguascalientes,dia01094.txt,Aguascalientes\diario\dia01094.txt,01094,01094,EL CHAYOTE,AGUASCALIENTES,TEPEZALÁ,OPERANDO,,22.28611111,-102.2358333,1951.2,utf-8-sig,True,True,FECHA | PRECIP | EVAP | TMAX | TMIN,True,True,True,1981-08-18,2025-05-31,2001-01-01,2025-05-31,15278,8332,0,6946,8332,0,
Aguascalientes,dia01095.txt,Aguascalientes\diario\dia01095.txt,01095,01095,MILPILLAS DE ARRIBA,AGUASCALIENTES,JESÚS MARÍA,OPERANDO,,21.935,-102.5508333,2163.6,utf-8-sig,True,True,FECHA | PRECIP | EVAP | TMAX | TMIN,True,True,True,1981-08-11,2024-10-02,2001-01-01,2024-10-02,14969,7922,0,7047,7922,0,
Aguascalientes,dia01096.txt,Aguascalientes\diario\dia01096.txt,01096,01096,CALVILLITO,AGUASCALIENTES,AGUASCALIENTES,OPERANDO,,21.83527778,-102.1825,1969.8,utf-8-sig,True,True,FECHA | PRECIP | EVAP | TMAX | TMIN,True,True,True,1983-08-01,2026-02-20,2001-01-16,2025-06-30,15293,8932,0,6361,8932,0,
Aguascalientes,dia01097.txt,Aguascalientes\diario\dia01097.txt,01097,01097,AGUASCALIENTES II,AGUASCALIENTES,AGUASCALIENTES,OPERANDO,,21.90555556,-102.265,1945.5,utf-8-sig,True,True,FECHA | PRECIP | EVAP | TMAX | TMIN,True,True,True,1995-08-01,2025-02-28,2001-01-01,2025-02-28,10095,8115,0,1980,8115,0,
Aguascalientes,dia01098.txt,Aguascalientes\diario\dia01098.txt,01098,01098,LA POSTA U.A.A.,AGUASCALIENTES,JESÚS MARÍA,OPERANDO,,21.9725,-102.3625,1940.9,utf-8-sig,True,True,FECHA | PRECIP | EVAP | TMAX | TMIN,True,True,True,1986-10-12,2025-04-30,2001-01-01,2025-04-30,13373,8453,0,4920,8453,0,
Aguascalientes,dia01099.txt,Aguascalientes\diario\dia01099.txt,01099,01099,JESUS TERAN (EL MUERTO),AGUASCALIENTES,EL LLANO,OPERANDO,,21.97583333,-102.0619444,2044.0,utf-8-sig,True,True,FECHA | PRECIP | EVAP | TMAX | TMIN,True,True,True,1985-02-15,2024-11-30,2001-01-01,2024-11-30,14503,8735,0,5768,8735,0,
Aguascalientes,dia01101.txt,Aguascalientes\diario\dia01101.txt,01101,01101,LAS PRESAS,AGUASCALIENTES,EL LLANO,OPERANDO,,21.90916667,-102.0869444,2044.6,utf-8-sig,True,True,FECHA | PRECIP | EVAP | TMAX | TMIN,True,True,True,1986-02-01,2024-12-31,2001-01-01,2024-12-31,14122,8674,0,5448,8674,0,
Aguascalientes,dia01102.txt,Aguascalientes\diario\dia01102.txt,01102,01102,PABELLON DE ARTEAGA (DGE),AGUASCALIENTES,PABELLÓN DE ARTEAGA,OPERANDO,,22.14722222,-102.2791667,1929.7,utf-8-sig,True,True,FECHA | PRECIP | EVAP | TMAX | TMIN,True,True,True,1990-01-01,2026-03-05,2001-01-01,2025-12-31,13171,9111,0,4060,9111,0,
Aguascalientes,dia01103.txt,Aguascalientes\diario\dia01103.txt,01103,01103,ALAMITOS CAMPAMENTO,AGUASCALIENTES,SAN JOSÉ DE GRACIA,OPERANDO,,22.1775,-102.5861111,2603.4,utf-8-sig,True,True,FECHA | PRECIP | EVAP | TMAX | TMIN,True,True,True,1998-06-01,2025-03-31,2001-01-01,2025-03-31,9429,8793,0,636,8793,0,
Aguascalientes,dia01104.txt,Aguascalientes\diario\dia01104.txt,01104,01104,ABELARDO L. RODRIGUEZ,AGUASCALIENTES,JESÚS MARÍA,SUSPENDIDA,,21.91444444,-102.4286111,1970.8,utf-8-sig,True,True,FECHA | PRECIP | EVAP | TMAX | TMIN,True,True,True,2002-01-20,2016-11-30,2002-01-20,2016-11-30,4647,4647,0,0,4647,0,
Aguascalientes,dia01105.txt,Aguascalientes\diario\dia01105.txt,01105,01105,LOS CUARTOS,AGUASCALIENTES,JESÚS MARÍA,OPERANDO,,21.98638889,-102.35,1901.3,utf-8-sig,True,True,FECHA | PRECIP | EVAP | TMAX | TMIN,True,True,True,2001-03-10,2024-12-31,2001-03-10,2024-12-31,7886,7886,0,0,7886,0,
Aguascalientes,dia01106.txt,Aguascalientes\diario\dia01106.txt,01106,01106,LA PRIMAVERA,AGUASCALIENTES,JESÚS MARÍA,OPERANDO,,21.95861111,-102.4758333,2059.0,utf-8-sig,True,True,FECHA | PRECIP | EVAP | TMAX | TMIN,True,True,True,2001-01-22,2025-06-30,2001-01-22,2025-06-30,8322,8322,0,0,8322,0,
Aguascalientes,dia01108.txt,Aguascalientes\diario\dia01108.txt,01108,01108,ARROYO HONDO  (CYCNA),AGUASCALIENTES,TEPEZALÁ,SUSPENDIDA,,22.1825,-102.2077778,1999.0,utf-8-sig,True,True,FECHA | PRECIP | EVAP | TMAX | TMIN,True,True,True,2002-03-01,2015-01-31,2002-03-01,2015-01-31,4535,4535,0,0,4535,0,
Baja_California,dia02001.txt,Baja_California\diario\dia02001.txt,02001,02001,AGUA CALIENTE,BAJA CALIFORNIA,ENSENADA,OPERANDO,,32.1075,-116.4541667,400.0,utf-8-sig,True,True,FECHA | PRECIP | EVAP | TMAX | TMIN,True,True,True,1969-01-01,2024-12-31,2001-01-01,2024-12-31,19960,8381,0,11579,8381,0,
Baja_California,dia02002.txt,Baja_California\diario\dia02002.txt,02002,02002,BAHIA DE LOS ANGELES,BAJA CALIFORNIA,SAN QUINTÍN,OPERANDO,,28.60388889,-113.5561111,4.0,utf-8-sig,True,True,FECHA | PRECIP | EVAP | TMAX | TMIN,True,True,True,1953-09-09,2024-12-31,2001-01-01,2024-12-31,24742,7789,0,16953,7789,0,
Baja_California,dia02003.txt,Baja_California\diario\dia02003.txt,02003,02003,BATAQUEZ,BAJA CALIFORNIA,MEXICALI,SUSPENDIDA,,32.55111111,-115.0688889,23.0,utf-8-sig,True,True,FECHA | PRECIP | EVAP | TMAX | TMIN,True,True,True,1948-07-05,2003-06-30,2001-01-01,2003-06-30,19364,911,0,18453,911,0,
Baja_California,dia02004.txt,Baja_California\diario\dia02004.txt,02004,02004,IGNACIO ZARAGOZA -BELEN-,BAJA CALIFORNIA,ENSENADA,OPERANDO,,32.19527778,-116.4855556,540.0,utf-8-sig,True,True,FECHA | PRECIP | EVAP | TMAX | TMIN,True,True,True,1964-12-04,2021-11-30,2001-01-01,2021-11-30,18808,6502,0,12306,6502,0,
Baja_California,dia02005.txt,Baja_California\diario\dia02005.txt,02005,02005,BOQUILLA SANTA ROSA DE LA MISION,BAJA CALIFORNIA,ENSENADA,SUSPENDIDA,,32.02166667,-116.7769444,250.0,utf-8-sig,True,True,FECHA | PRECIP | EVAP | TMAX | TMIN,True,True,True,1948-04-22,2007-09-30,2001-01-01,2007-09-30,16965,2464,0,14501,2464,0,
Baja_California,dia02006.txt,Baja_California\diario\dia02006.txt,02006,02006,CHAPALA,BAJA CALIFORNIA,SAN QUINTÍN,OPERANDO,,29.48805556,-114.3638889,660.0,utf-8-sig,True,True,FECHA | PRECIP | EVAP | TMAX | TMIN,True,True,True,1953-12-01,2021-07-30,2001-01-01,2021-07-30,23848,7422,0,16426,7422,0,
Baja_California,dia02007.txt,Baja_California\diario\dia02007.txt,02007,02007,CERRO PRIETO (CFE),BAJA CALIFORNIA,MEXICALI,SUSPENDIDA,,32.43805556,-115.3875,10.0,utf-8-sig,True,True,FECHA | PRECIP | EVAP | TMAX | TMIN,True,True,True,1964-05-10,1977-06-30,,,4404,0,0,4404,0,0,
Baja_California,dia02008.txt,Baja_California\diario\dia02008.txt,02008,02008,COLONIA GUERRERO,BAJA CALIFORNIA,SAN QUINTÍN,SUSPENDIDA,,30.71666667,-115.9833333,30.0,utf-8-sig,True,True,FECHA | PRECIP | EVAP | TMAX | TMIN,True,True,True,1948-03-12,1993-01-21,,,16056,0,0,16056,0,0,
Baja_California,dia02009.txt,Baja_California\diario\dia02009.txt,02009,02009,COLONIA JUAREZ,BAJA CALIFORNIA,MEXICALI,SUSPENDIDA,,32.29861111,-115.0161111,17.0,utf-8-sig,True,True,FECHA | PRECIP | EVAP | TMAX | TMIN,True,True,True,1945-03-01,1990-12-31,,,14811,0,0,14811,0,0,
Baja_California,dia02010.txt,Baja_California\diario\dia02010.txt,02010,02010,COMPOSTELA,BAJA CALIFORNIA,ENSENADA,SUSPENDIDA,,31.78333333,-115.7666667,625.0,utf-8-sig,True,True,FECHA | PRECIP | EVAP | TMAX | TMIN,True,True,True,1969-01-01,1982-11-30,,,4256,0,0,4256,0,0,
Baja_California,dia02011.txt,Baja_California\diario\dia02011.txt,02011,02011,DELTA,BAJA CALIFORNIA,MEXICALI,OPERANDO,,32.35305556,-115.1891667,12.0,utf-8-sig,True,True,FECHA | PRECIP | EVAP | TMAX | TMIN,True,True,True,1948-07-05,2020-12-31,2001-01-01,2020-12-31,25263,7224,0,18039,7224,0,
Baja_California,dia02012.txt,Baja_California\diario\dia02012.txt,02012,02012,EJIDO JOSE MARIA MORELOS,BAJA CALIFORNIA,SAN QUINTÍN,OPERANDO,,28.3,-114.0258333,20.0,utf-8-sig,True,True,FECHA | PRECIP | EVAP | TMAX | TMIN,True,True,True,1970-11-01,2025-11-11,2001-01-01,2025-11-11,18118,7533,0,10585,7533,0,
Baja_California,dia02013.txt,Baja_California\diario\dia02013.txt,02013,02013,EJIDO PLAN NACIONAL AGRARIO,BAJA CALIFORNIA,ENSENADA,SUSPENDIDA,,30.67,-115.1311111,420.0,utf-8-sig,True,True,FECHA | PRECIP | EVAP | TMAX | TMIN,True,True,True,1970-11-28,1988-12-21,,,4109,0,0,4109,0,0,
Baja_California,dia02014.txt,Baja_California\diario\dia02014.txt,02014,02014,EL ALAMO,BAJA CALIFORNIA,ENSENADA,SUSPENDIDA,,31.59333333,-116.0544444,1115.0,utf-8-sig,True,True,FECHA | PRECIP | EVAP | TMAX | TMIN,True,True,True,1948-06-01,1997-05-31,,,16348,0,0,16348,0,0,
Baja_California,dia02015.txt,Baja_California\diario\dia02015.txt,02015,02015,EL ARCO,BAJA CALIFORNIA,SAN QUINTÍN,OPERANDO,,28.02861111,-113.3963889,288.0,utf-8-sig,True,True,FECHA | PRECIP | EVAP | TMAX | TMIN,True,True,True,1953-10-01,2024-12-31,2001-01-01,2024-12-31,23516,7660,0,15856,7660,0,
Baja_California,dia02016.txt,Baja_California\diario\dia02016.txt,02016,02016,EL BARRIL,BAJA CALIFORNIA,SAN QUINTÍN,SUSPENDIDA,,28.3025,-112.8783333,50.0,utf-8-sig,True,True,FECHA | PRECIP | EVAP | TMAX | TMIN,True,True,True,1955-10-01,2017-01-31,2001-02-01,2017-01-31,21071,5207,0,15864,5207,0,
Baja_California,dia02017.txt,Baja_California\diario\dia02017.txt,02017,02017,PLANTA DE BOMBEO ROSARITO,BAJA CALIFORNIA,PLAYAS DE ROSARITO,SUSPENDIDA,,32.32777778,-117.0472222,72.0,utf-8-sig,True,True,FECHA | PRECIP | EVAP | TMAX | TMIN,True,True,True,1969-01-01,2016-12-31,2011-01-01,2016-12-31,7575,1612,0,5963,1612,0,
Baja_California,dia02019.txt,Baja_California\diario\dia02019.txt,02019,02019,EL COMPADRE,BAJA CALIFORNIA,TECATE,SUSPENDIDA,,32.3375,-116.2541667,1110.0,utf-8-sig,True,True,FECHA | PRECIP | EVAP | TMAX | TMIN,True,True,True,1948-12-01,2019-04-30,2019-01-01,2019-04-30,5938,120,0,5818,120,0,
Baja_California,dia02020.txt,Baja_California\diario\dia02020.txt,02020,02020,EL MAYOR,BAJA CALIFORNIA,MEXICALI,OPERANDO,,32.1275,-115.2780556,15.0,utf-8-sig,True,True,FECHA | PRECIP | EVAP | TMAX | TMIN,True,True,True,1969-01-01,2022-12-31,2001-01-01,2022-12-31,15511,7840,0,7671,7840,0,
Baja_California,dia02021.txt,Baja_California\diario\dia02021.txt,02021,02021,EL PINAL,BAJA CALIFORNIA,ENSENADA,SUSPENDIDA,,32.18333333,-116.2916667,1320.0,utf-8-sig,True,True,FECHA | PRECIP | EVAP | TMAX | TMIN,True,True,True,1969-01-01,1999-12-10,,,9062,0,0,9062,0,0,
Baja_California,dia02022.txt,Baja_California\diario\dia02022.txt,02022,02022,EL ROSARIO,BAJA CALIFORNIA,SAN QUINTÍN,OPERANDO,,30.05944444,-115.7233333,40.0,utf-8-sig,True,True,FECHA | PRECIP | EVAP | TMAX | TMIN,True,True,True,1953-09-08,2022-07-31,2001-01-01,2022-07-31,20100,7330,0,12770,7330,0,
Baja_California,dia02023.txt,Baja_California\diario\dia02023.txt,02023,02023,EL SOCORRO,BAJA CALIFORNIA,SAN QUINTÍN,OPERANDO,,30.32055556,-115.8205556,26.0,utf-8-sig,True,True,FECHA | PRECIP | EVAP | TMAX | TMIN,True,True,True,1956-08-07,2022-06-30,2001-01-01,2022-06-30,20565,6704,0,13861,6704,0,
Baja_California,dia02024.txt,Baja_California\diario\dia02024.txt,02024,02024,EL TESTERAZO,BAJA CALIFORNIA,TECATE,OPERANDO,,32.29638889,-116.5344444,380.0,utf-8-sig,True,True,FECHA | PRECIP | EVAP | TMAX | TMIN,True,True,True,1970-11-13,2023-09-30,2001-01-01,2023-09-30,13062,8092,0,4970,8092,0,
Baja_California,dia02025.txt,Baja_California\diario\dia02025.txt,02025,02025,ENSENADA (OBS),BAJA CALIFORNIA,ENSENADA,OPERANDO,76050,31.85777778,-116.6058333,21.0,utf-8-sig,True,True,FECHA | PRECIP | EVAP | TMAX | TMIN,True,True,True,1946-05-01,2023-12-01,2001-01-01,2023-12-01,7685,3903,0,3782,3903,0,
Baja_California,dia02026.txt,Baja_California\diario\dia02026.txt,02026,02026,ISLA GUADALUPE (OBS),BAJA CALIFORNIA,INSULAR - SIN MUNICIPIO,SUSPENDIDA,76151,29.02,-118.2780556,580.0,utf-8-sig,True,True,FECHA | PRECIP | EVAP | TMAX | TMIN,True,True,True,1981-01-01,1999-07-31,,,6053,0,0,6053,0,0,
Baja_California,dia02027.txt,Baja_California\diario\dia02027.txt,02027,02027,ISLA CEDROS,BAJA CALIFORNIA,INSULAR - SIN MUNICIPIO,SUSPENDIDA,,28.135,-115.175,3.0,utf-8-sig,True,True,FECHA | PRECIP | EVAP | TMAX | TMIN,True,True,True,1957-12-13,2000-02-29,,,12024,0,0,12024,0,0,
Baja_California,dia02029.txt,Baja_California\diario\dia02029.txt,02029,02029,LA PROVIDENCIA,BAJA CALIFORNIA,SAN QUINTÍN,SUSPENDIDA,,30.96861111,-116.1566667,40.0,utf-8-sig,True,True,FECHA | PRECIP | EVAP | TMAX | TMIN,True,True,True,1969-01-01,2005-12-31,2001-01-01,2005-12-31,10522,1795,0,8727,1795,0,
Baja_California,dia02030.txt,Baja_California\diario\dia02030.txt,02030,02030,LA PUERTA,BAJA CALIFORNIA,TECATE,OPERANDO,,32.54388889,-116.6783333,480.0,utf-8-sig,True,True,FECHA | PRECIP | EVAP | TMAX | TMIN,True,True,True,1946-01-01,2026-03-05,2001-01-01,2025-12-31,27764,8901,0,18863,8901,0,
Baja_California,dia02031.txt,Baja_California\diario\dia02031.txt,02031,02031,LA RUMOROSA,BAJA CALIFORNIA,TECATE,OPERANDO,,32.54861111,-116.0463889,1232.0,utf-8-sig,True,True,FECHA | PRECIP | EVAP | TMAX | TMIN,True,True,True,1932-01-01,2025-03-31,2004-03-07,2025-03-31,24282,7112,0,17170,7112,0,
Baja_California,dia02032.txt,Baja_California\diario\dia02032.txt,02032,02032,LAS ESCOBAS,BAJA CALIFORNIA,SAN QUINTÍN,OPERANDO,,30.57944444,-115.9377778,30.0,utf-8-sig,True,True,FECHA | PRECIP | EVAP | TMAX | TMIN,True,True,True,1948-03-23,2024-12-31,2001-01-01,2024-12-31,25984,7759,0,18225,7759,0,
Baja_California,dia02033.txt,Baja_California\diario\dia02033.txt,02033,02033,MEXICALI (DGE),BAJA CALIFORNIA,MEXICALI,SUSPENDIDA,,32.66333333,-115.4677778,3.0,utf-8-sig,True,True,FECHA | PRECIP | EVAP | TMAX | TMIN,True,True,True,1944-02-01,1988-05-31,,,14849,0,0,14849,0,0,
Baja_California,dia02034.txt,Baja_California\diario\dia02034.txt,02034,02034,MEXICALI (SMN),BAJA CALIFORNIA,MEXICALI,OPERANDO,,32.55,-115.4666667,3.0,utf-8-sig,True,True,FECHA | PRECIP | EVAP | TMAX | TMIN,True,True,True,1930-01-01,2026-02-27,2001-01-01,2025-12-31,32156,9131,0,23025,9131,0,
Baja_California,dia02035.txt,Baja_California\diario\dia02035.txt,02035,02035,OJOS NEGROS,BAJA CALIFORNIA,ENSENADA,SUSPENDIDA,,31.91166667,-116.2647222,680.0,utf-8-sig,True,True,FECHA | PRECIP | EVAP | TMAX | TMIN,True,True,True,1948-06-14,1990-12-31,,,15226,0,0,15226,0,0,
Baja_California,dia02036.txt,Baja_California\diario\dia02036.txt,02036,02036,OLIVARES MEXICANOS,BAJA CALIFORNIA,ENSENADA,OPERANDO,,32.04916667,-116.6808333,340.0,utf-8-sig,True,True,FECHA | PRECIP | EVAP | TMAX | TMIN,True,True,True,1936-01-01,2024-12-31,2005-01-01,2024-12-31,23280,7122,0,16158,7122,0,
Baja_California,dia02037.txt,Baja_California\diario\dia02037.txt,02037,02037,PRESA MORELOS,BAJA CALIFORNIA,MEXICALI,OPERANDO,,32.71527778,-114.7288889,40.0,utf-8-sig,True,True,FECHA | PRECIP | EVAP | TMAX | TMIN,True,True,True,1961-01-01,2026-02-28,2001-01-01,2025-12-31,21954,9107,0,12847,9107,0,
Baja_California,dia02038.txt,Baja_California\diario\dia02038.txt,02038,02038,PRESA RODRIGUEZ,BAJA CALIFORNIA,TIJUANA,OPERANDO,,32.44694444,-116.9077778,120.0,utf-8-sig,True,True,FECHA | PRECIP | EVAP | TMAX | TMIN,True,True,True,1929-01-01,2026-03-06,2001-01-01,2025-12-31,33681,9130,0,24551,9130,0,
Baja_California,dia02039.txt,Baja_California\diario\dia02039.txt,02039,02039,PUNTA PRIETA,BAJA CALIFORNIA,SAN QUINTÍN,OPERANDO,,29.15833333,-114.1458333,325.0,utf-8-sig,True,True,FECHA | PRECIP | EVAP | TMAX | TMIN,True,True,True,1947-01-01,2024-08-05,2001-01-01,2024-08-05,21975,7030,0,14945,7030,0,
Baja_California,dia02040.txt,Baja_California\diario\dia02040.txt,02040,02040,RANCHO ALEGRE,BAJA CALIFORNIA,SAN QUINTÍN,OPERANDO,,28.22861111,-113.7552778,120.0,utf-8-sig,True,True,FECHA | PRECIP | EVAP | TMAX | TMIN,True,True,True,1954-05-01,2023-09-30,2001-01-01,2023-09-30,23756,7324,0,16432,7324,0,
Baja_California,dia02041.txt,Baja_California\diario\dia02041.txt,02041,02041,NUEVO ROSARITO,BAJA CALIFORNIA,SAN QUINTÍN,OPERANDO,,28.63444444,-114.0172222,20.0,utf-8-sig,True,True,FECHA | PRECIP | EVAP | TMAX | TMIN,True,True,True,1958-08-08,2021-09-30,2001-01-01,2021-09-30,20790,5784,0,15006,5784,0,
Baja_California,dia02042.txt,Baja_California\diario\dia02042.txt,02042,02042,ROSARITO,BAJA CALIFORNIA,PLAYAS DE ROSARITO,SUSPENDIDA,,32.28777778,-117.0019444,150.0,utf-8-sig,True,True,FECHA | PRECIP | EVAP | TMAX | TMIN,True,True,True,1957-06-06,1974-05-31,,,5428,0,0,5428,0,0,
Baja_California,dia02043.txt,Baja_California\diario\dia02043.txt,02043,02043,SAN AGUSTIN,BAJA CALIFORNIA,SAN QUINTÍN,OPERANDO,,29.9375,-114.9669444,552.0,utf-8-sig,True,True,FECHA | PRECIP | EVAP | TMAX | TMIN,True,True,True,1956-08-08,2023-10-02,2001-01-01,2023-10-02,22738,7454,0,15284,7454,0,
Baja_California,dia02044.txt,Baja_California\diario\dia02044.txt,02044,02044,SAN BORJA,BAJA CALIFORNIA,SAN QUINTÍN,OPERANDO,,28.73527778,-113.7525,445.0,utf-8-sig,True,True,FECHA | PRECIP | EVAP | TMAX | TMIN,True,True,True,1955-10-01,2022-06-30,2001-01-01,2022-06-30,22199,7363,0,14836,7363,0,
Baja_California,dia02045.txt,Baja_California\diario\dia02045.txt,02045,02045,SAN CARLOS,BAJA CALIFORNIA,ENSENADA,SUSPENDIDA,,31.78527778,-116.4636111,164.0,utf-8-sig,True,True,FECHA | PRECIP | EVAP | TMAX | TMIN,True,True,True,1962-06-06,2015-07-31,2001-01-01,2015-07-31,14174,3045,0,11129,3045,0,
Baja_California,dia02046.txt,Baja_California\diario\dia02046.txt,02046,02046,SAN FELIPE,BAJA CALIFORNIA,MEXICALI,OPERANDO,,31.0275,-114.8352778,10.0,utf-8-sig,True,True,FECHA | PRECIP | EVAP | TMAX | TMIN,True,True,True,1948-05-09,2025-02-11,2001-01-01,2025-02-11,24800,7271,0,17529,7271,0,
Baja_California,dia02047.txt,Baja_California\diario\dia02047.txt,02047,02047,SAN FERNANDO,BAJA CALIFORNIA,SAN QUINTÍN,SUSPENDIDA,,29.98333333,-115.2333333,10.0,utf-8-sig,True,True,FECHA | PRECIP | EVAP | TMAX | TMIN,True,True,True,1954-05-04,1972-12-31,,,6473,0,0,6473,0,0,
Baja_California,dia02048.txt,Baja_California\diario\dia02048.txt,02048,02048,SAN JOSE,BAJA CALIFORNIA,SAN QUINTÍN,SUSPENDIDA,,31.06666667,-115.5833333,40.0,utf-8-sig,True,True,FECHA | PRECIP | EVAP | TMAX | TMIN,True,True,True,1958-08-01,1974-01-31,,,4909,0,0,4909,0,0,
Baja_California,dia02049.txt,Baja_California\diario\dia02049.txt,02049,02049,SAN JUAN DE DIOS NORTE,BAJA CALIFORNIA,ENSENADA,SUSPENDIDA,,32.1325,-116.165,1280.0,utf-8-sig,True,True,FECHA | PRECIP | EVAP | TMAX | TMIN,True,True,True,1956-09-21,1985-07-31,,,10035,0,0,10035,0,0,
Baja_California,dia02050.txt,Baja_California\diario\dia02050.txt,02050,02050,SAN JUAN DE DIOS SUR,BAJA CALIFORNIA,SAN QUINTÍN,SUSPENDIDA,,30.18444444,-115.1375,600.0,utf-8-sig,True,True,FECHA | PRECIP | EVAP | TMAX | TMIN,True,True,True,1964-10-03,1990-12-31,,,4278,0,0,4278,0,0,
Baja_California,dia02051.txt,Baja_California\diario\dia02051.txt,02051,02051,SAN LUIS BAJA CALIFORNIA,BAJA CALIFORNIA,SAN QUINTÍN,SUSPENDIDA,,29.72722222,-114.7108333,480.0,utf-8-sig,True,True,FECHA | PRECIP | EVAP | TMAX | TMIN,True,True,True,1961-01-01,2012-11-30,2001-01-01,2012-11-30,11061,1279,0,9782,1279,0,
Baja_California,dia02052.txt,Baja_California\diario\dia02052.txt,02052,02052,SAN LUIS GONZAGA,BAJA CALIFORNIA,ENSENADA,SUSPENDIDA,,30.08333333,-114.6166667,1.0,utf-8-sig,True,True,FECHA | PRECIP | EVAP | TMAX | TMIN,True,True,True,1962-07-01,1991-09-26,,,2070,0,0,2070,0,0,
Baja_California,dia02053.txt,Baja_California\diario\dia02053.txt,02053,02053,SAN MIGUEL,BAJA CALIFORNIA,SAN QUINTÍN,SUSPENDIDA,,28.58333333,-113.95,440.0,utf-8-sig,True,True,FECHA | PRECIP | EVAP | TMAX | TMIN,True,True,True,1960-01-01,1989-04-30,,,6333,0,0,6333,0,0,
Baja_California,dia02054.txt,Baja_California\diario\dia02054.txt,02054,02054,SAN RAFAEL,BAJA CALIFORNIA,SAN QUINTÍN,SUSPENDIDA,,31.03333333,-115.9833333,100.0,utf-8-sig,True,True,FECHA | PRECIP | EVAP | TMAX | TMIN,True,True,True,1965-09-14,2020-06-30,2020-01-01,2020-06-30,5310,182,0,5128,182,0,
Baja_California,dia02055.txt,Baja_California\diario\dia02055.txt,02055,02055,SAN TELMO,BAJA CALIFORNIA,SAN QUINTÍN,OPERANDO,,30.95,-116.1,60.0,utf-8-sig,True,True,FECHA | PRECIP | EVAP | TMAX | TMIN,True,True,True,1948-05-21,2022-12-09,2011-08-01,2022-12-09,16485,2477,0,14008,2477,0,
Baja_California,dia02056.txt,Baja_California\diario\dia02056.txt,02056,02056,SAN VICENTE,BAJA CALIFORNIA,ENSENADA,OPERANDO,,31.32916667,-116.2477778,110.0,utf-8-sig,True,True,FECHA | PRECIP | EVAP | TMAX | TMIN,True,True,True,1948-04-15,2023-09-30,2001-01-01,2023-09-30,26490,8303,0,18187,8303,0,
Baja_California,dia02057.txt,Baja_California\diario\dia02057.txt,02057,02057,SANTA CATARINA NORTE,BAJA CALIFORNIA,ENSENADA,SUSPENDIDA,,31.65722222,-115.8238889,1150.0,utf-8-sig,True,True,FECHA | PRECIP | EVAP | TMAX | TMIN,True,True,True,1958-07-22,1992-07-31,,,11680,0,0,11680,0,0,
Baja_California,dia02058.txt,Baja_California\diario\dia02058.txt,02058,02058,SANTA CATARINA SUR,BAJA CALIFORNIA,SAN QUINTÍN,OPERANDO,,29.72194444,-115.1302778,317.0,utf-8-sig,True,True,FECHA | PRECIP | EVAP | TMAX | TMIN,True,True,True,1954-05-11,2021-06-30,2001-01-01,2021-06-30,22975,6539,0,16436,6539,0,
Baja_California,dia02059.txt,Baja_California\diario\dia02059.txt,02059,02059,SANTA CLARA,BAJA CALIFORNIA,MEXICALI,OPERANDO,,31.08055556,-115.2861111,410.0,utf-8-sig,True,True,FECHA | PRECIP | EVAP | TMAX | TMIN,True,True,True,1962-07-24,2020-12-31,2001-01-01,2020-12-31,16603,6751,0,9852,6751,0,
Baja_California,dia02060.txt,Baja_California\diario\dia02060.txt,02060,02060,SANTA CRUZ,BAJA CALIFORNIA,SAN QUINTÍN,SUSPENDIDA,,30.87861111,-115.6277778,980.0,utf-8-sig,True,True,FECHA | PRECIP | EVAP | TMAX | TMIN,True,True,True,1959-10-01,2005-11-30,2001-01-01,2005-11-30,15937,1614,0,14323,1614,0,
Baja_California,dia02061.txt,Baja_California\diario\dia02061.txt,02061,02061,SANTA GERTRUDIS,BAJA CALIFORNIA,SAN QUINTÍN,SUSPENDIDA,,28.075,-113.0916667,400.0,utf-8-sig,True,True,FECHA | PRECIP | EVAP | TMAX | TMIN,True,True,True,1955-10-04,1991-12-31,,,10627,0,0,10627,0,0,
Baja_California,dia02062.txt,Baja_California\diario\dia02062.txt,02062,02062,SANTA ISABEL,BAJA CALIFORNIA,ENSENADA,SUSPENDIDA,,31.87111111,-115.8172222,1540.0,utf-8-sig,True,True,FECHA | PRECIP | EVAP | TMAX | TMIN,True,True,True,1969-01-01,1983-06-22,,,3774,0,0,3774,0,0,
Baja_California,dia02063.txt,Baja_California\diario\dia02063.txt,02063,02063,SANTA MARIA DEL MAR,BAJA CALIFORNIA,SAN QUINTÍN,OPERANDO,,30.40166667,-115.8883333,28.0,utf-8-sig,True,True,FECHA | PRECIP | EVAP | TMAX | TMIN,True,True,True,1957-07-22,2020-12-31,2001-01-01,2020-12-31,22334,7232,0,15102,7232,0,
Baja_California,dia02064.txt,Baja_California\diario\dia02064.txt,02064,02064,SANTO DOMINGO,BAJA CALIFORNIA,ENSENADA,SUSPENDIDA,,31.63333333,-116.3769444,250.0,utf-8-sig,True,True,FECHA | PRECIP | EVAP | TMAX | TMIN,True,True,True,1962-09-01,2003-04-30,2001-01-01,2003-04-30,12760,850,0,11910,850,0,
Baja_California,dia02065.txt,Baja_California\diario\dia02065.txt,02065,02065,SANTO TOMAS,BAJA CALIFORNIA,ENSENADA,OPERANDO,,31.79194444,-116.4061111,180.0,utf-8-sig,True,True,FECHA | PRECIP | EVAP | TMAX | TMIN,True,True,True,1948-03-23,2022-01-31,2001-01-01,2022-01-31,26359,7345,0,19014,7345,0,
Baja_California,dia02066.txt,Baja_California\diario\dia02066.txt,02066,02066,LAGUNA HANSON A. SIERRA DE JUAREZ,BAJA CALIFORNIA,ENSENADA,SUSPENDIDA,,32.00361111,-115.9483333,1580.0,utf-8-sig,True,True,FECHA | PRECIP | EVAP | TMAX | TMIN,True,True,True,1961-10-11,2013-04-30,2011-01-01,2013-04-30,9562,851,0,8711,851,0,
Baja_California,dia02067.txt,Baja_California\diario\dia02067.txt,02067,02067,TEPIC,BAJA CALIFORNIA,ENSENADA,SUSPENDIDA,,31.15833333,-115.7205556,30.0,utf-8-sig,True,True,FECHA | PRECIP | EVAP | TMAX | TMIN,True,True,True,1969-05-01,1986-09-30,,,4906,0,0,4906,0,0,
Baja_California,dia02068.txt,Baja_California\diario\dia02068.txt,02068,02068,TIJUANA,BAJA CALIFORNIA,TIJUANA,SUSPENDIDA,,32.525,-117.0416667,20.0,utf-8-sig,True,True,FECHA | PRECIP | EVAP | TMAX | TMIN,True,True,True,1948-06-26,1984-12-31,,,12488,0,0,12488,0,0,
Baja_California,dia02069.txt,Baja_California\diario\dia02069.txt,02069,02069,VALLE DE LAS PALMAS,BAJA CALIFORNIA,TECATE,OPERANDO,,32.37027778,-116.6536111,280.0,utf-8-sig,True,True,FECHA | PRECIP | EVAP | TMAX | TMIN,True,True,True,1949-01-01,2024-11-30,2001-01-01,2024-11-30,24051,5218,0,18833,5218,0,
Baja_California,dia02070.txt,Baja_California\diario\dia02070.txt,02070,02070,VALLE REDONDO,BAJA CALIFORNIA,TIJUANA,SUSPENDIDA,,32.51777778,-116.7561111,242.0,utf-8-sig,True,True,FECHA | PRECIP | EVAP | TMAX | TMIN,True,True,True,1934-04-01,2020-12-31,2020-01-01,2020-12-31,8574,366,0,8208,366,0,
Baja_California,dia02071.txt,Baja_California\diario\dia02071.txt,02071,02071,COLONIA VALLE DE LA TRINIDAD,BAJA CALIFORNIA,ENSENADA,SUSPENDIDA,,31.35583333,-115.6963889,740.0,utf-8-sig,True,True,FECHA | PRECIP | EVAP | TMAX | TMIN,True,True,True,1957-06-01,2019-12-31,2018-01-01,2019-12-31,13832,730,0,13102,730,0,
Baja_California,dia02072.txt,Baja_California\diario\dia02072.txt,02072,02072,PRESA EMILIO LOPEZ ZAMORA,BAJA CALIFORNIA,ENSENADA,OPERANDO,,31.89583333,-115.5972222,43.0,utf-8-sig,True,True,FECHA | PRECIP | EVAP | TMAX | TMIN,True,True,True,1923-01-01,2026-03-06,2001-01-01,2025-12-31,34998,9131,0,25867,9131,0,
Baja_California,dia02073.txt,Baja_California\diario\dia02073.txt,02073,02073,TIJUANA (CFE),BAJA CALIFORNIA,TIJUANA,SUSPENDIDA,,32.52416667,-117.0741667,25.0,utf-8-sig,True,True,FECHA | PRECIP | EVAP | TMAX | TMIN,True,True,True,1969-01-01,1982-12-31,,,3346,0,0,3346,0,0,
Baja_California,dia02075.txt,Baja_California\diario\dia02075.txt,02075,02075,SANTA GERTRUDIS MISION,BAJA CALIFORNIA,SAN QUINTÍN,OPERANDO,,28.05055556,-113.3997222,413.0,utf-8-sig,True,True,FECHA | PRECIP | EVAP | TMAX | TMIN,True,True,True,2007-01-01,2025-10-31,2007-01-01,2025-10-31,3699,3699,0,0,3699,0,
Baja_California,dia02076.txt,Baja_California\diario\dia02076.txt,02076,02076,LAS PALOMAS,BAJA CALIFORNIA,SAN QUINTÍN,SUSPENDIDA,,28.21833333,-113.0844444,480.0,utf-8-sig,True,True,FECHA | PRECIP | EVAP | TMAX | TMIN,True,True,True,2007-01-01,2013-06-30,2007-01-01,2013-06-30,2023,2023,0,0,2023,0,
Baja_California,dia02077.txt,Baja_California\diario\dia02077.txt,02077,02077,LA MISION,BAJA CALIFORNIA,ENSENADA,OPERANDO,,32.10194444,-116.8111111,20.0,utf-8-sig,True,True,FECHA | PRECIP | EVAP | TMAX | TMIN,True,True,True,2000-01-02,2024-12-31,2001-01-01,2024-12-31,9131,8766,0,365,8766,0,
Baja_California,dia02078.txt,Baja_California\diario\dia02078.txt,02078,02078,RANCHO P. P. CUCHUMA,BAJA CALIFORNIA,TECATE,OPERANDO,,32.56888889,-116.6611111,560.0,utf-8-sig,True,True,FECHA | PRECIP | EVAP | TMAX | TMIN,True,True,True,2007-02-20,2025-02-28,2007-02-20,2025-02-28,6584,6584,0,0,6584,0,
Baja_California,dia02079.txt,Baja_California\diario\dia02079.txt,02079,02079,EL ALAMAR,BAJA CALIFORNIA,ENSENADA,SUSPENDIDA,,31.83555556,-116.2038889,710.0,utf-8-sig,True,True,FECHA | PRECIP | EVAP | TMAX | TMIN,True,True,True,1980-11-01,2011-12-15,2001-01-01,2011-12-15,11119,4001,0,7118,4001,0,
Baja_California,dia02084.txt,Baja_California\diario\dia02084.txt,02084,02084,EL PROGRESO,BAJA CALIFORNIA,SAN QUINTÍN,OPERANDO,,29.9675,-115.1908333,517.0,utf-8-sig,True,True,FECHA | PRECIP | EVAP | TMAX | TMIN,True,True,True,1973-08-01,2018-10-31,2001-01-01,2018-10-31,15508,6270,0,9238,6270,0,
Baja_California,dia02085.txt,Baja_California\diario\dia02085.txt,02085,02085,SAN REGIS,BAJA CALIFORNIA,SAN QUINTÍN,SUSPENDIDA,,28.59722222,-113.7547222,495.0,utf-8-sig,True,True,FECHA | PRECIP | EVAP | TMAX | TMIN,True,True,True,1972-12-01,2006-06-30,2001-01-01,2006-06-30,11066,2007,0,9059,2007,0,
Baja_California,dia02086.txt,Baja_California\diario\dia02086.txt,02086,02086,EJIDO JACUME,BAJA CALIFORNIA,TECATE,OPERANDO,,32.59055556,-116.1916667,860.0,utf-8-sig,True,True,FECHA | PRECIP | EVAP | TMAX | TMIN,True,True,True,1973-11-16,2020-06-30,2004-01-01,2020-06-30,12856,5503,0,7353,5503,0,
Baja_California,dia02087.txt,Baja_California\diario\dia02087.txt,02087,02087,EJIDO DOCTOR OVIEDO MOTA,BAJA CALIFORNIA,MEXICALI,SUSPENDIDA,,32.22888889,-115.1694444,8.0,utf-8-sig,True,True,FECHA | PRECIP | EVAP | TMAX | TMIN,True,True,True,1974-10-10,2000-06-30,,,2225,0,0,2225,0,0,
Baja_California,dia02088.txt,Baja_California\diario\dia02088.txt,02088,02088,EJIDO HEROES DE LA INDEPENDENCIA,BAJA CALIFORNIA,ENSENADA,OPERANDO,,31.61027778,-115.9375,1000.0,utf-8-sig,True,True,FECHA | PRECIP | EVAP | TMAX | TMIN,True,True,True,1969-05-01,2023-09-30,2004-01-01,2023-09-30,12130,6037,0,6093,6037,0,
Baja_California,dia02089.txt,Baja_California\diario\dia02089.txt,02089,02089,EJIDO EMILIO LOPEZ ZAMORA,BAJA CALIFORNIA,ENSENADA,SUSPENDIDA,,31.10416667,-116.1683333,180.0,utf-8-sig,True,True,FECHA | PRECIP | EVAP | TMAX | TMIN,True,True,True,1974-02-13,2000-06-30,,,6139,0,0,6139,0,0,
Baja_California,dia02090.txt,Baja_California\diario\dia02090.txt,02090,02090,EJIDO ERENDIRA,BAJA CALIFORNIA,ENSENADA,SUSPENDIDA,,31.27527778,-116.3686111,91.0,utf-8-sig,True,True,FECHA | PRECIP | EVAP | TMAX | TMIN,True,True,True,1974-04-25,1996-05-31,,,5744,0,0,5744,0,0,
Baja_California,dia02091.txt,Baja_California\diario\dia02091.txt,02091,02091,EJIDO IGNACIO  LOPEZ RAYON,BAJA CALIFORNIA,ENSENADA,OPERANDO,,31.28777778,-116.2644444,170.0,utf-8-sig,True,True,FECHA | PRECIP | EVAP | TMAX | TMIN,True,True,True,1974-04-07,2020-12-31,2001-01-01,2020-12-31,16603,6975,0,9628,6975,0,
Baja_California,dia02092.txt,Baja_California\diario\dia02092.txt,02092,02092,EJIDO SAN MATIAS,BAJA CALIFORNIA,ENSENADA,OPERANDO,,31.33138889,-115.5436111,968.0,utf-8-sig,True,True,FECHA | PRECIP | EVAP | TMAX | TMIN,True,True,True,1974-02-07,2020-12-31,2001-01-01,2020-12-31,15165,7213,0,7952,7213,0,
Baja_California,dia02093.txt,Baja_California\diario\dia02093.txt,02093,02093,EJIDO VALLE DE LA TRINIDAD,BAJA CALIFORNIA,MEXICALI,OPERANDO,,32.35611111,-115.7488889,780.0,utf-8-sig,True,True,FECHA | PRECIP | EVAP | TMAX | TMIN,True,True,True,1974-08-01,2023-02-01,2001-01-01,2023-02-01,16208,6642,0,9566,6642,0,
Baja_California,dia02094.txt,Baja_California\diario\dia02094.txt,02094,02094,EL FARITO,BAJA CALIFORNIA,ENSENADA,SUSPENDIDA,,31.98333333,-116.6666667,250.0,utf-8-sig,True,True,FECHA | PRECIP | EVAP | TMAX | TMIN,True,True,True,1974-03-01,1986-11-28,,,2088,0,0,2088,0,0,
Baja_California,dia02095.txt,Baja_California\diario\dia02095.txt,02095,02095,LA BOCANA DE SANTO TOMAS,BAJA CALIFORNIA,SAN QUINTÍN,SUSPENDIDA,,29.86666667,-115.0,167.0,utf-8-sig,True,True,FECHA | PRECIP | EVAP | TMAX | TMIN,True,True,True,1974-10-13,1993-08-31,,,5193,0,0,5193,0,0,
Baja_California,dia02096.txt,Baja_California\diario\dia02096.txt,02096,02096,LA CALENTURA,BAJA CALIFORNIA,ENSENADA,OPERANDO,,31.27027778,-116.0369444,210.0,utf-8-sig,True,True,FECHA | PRECIP | EVAP | TMAX | TMIN,True,True,True,1974-04-28,2021-09-30,2001-01-01,2021-09-30,16053,7116,0,8937,7116,0,
Baja_California,dia02097.txt,Baja_California\diario\dia02097.txt,02097,02097,LAGUNA SALADA,BAJA CALIFORNIA,MEXICALI,SUSPENDIDA,,32.22388889,-115.6905556,25.0,utf-8-sig,True,True,FECHA | PRECIP | EVAP | TMAX | TMIN,True,True,True,1974-11-07,1990-12-31,,,4788,0,0,4788,0,0,
Baja_California,dia02099.txt,Baja_California\diario\dia02099.txt,02099,02099,RANCHO LOS ALGODONES,BAJA CALIFORNIA,ENSENADA,SUSPENDIDA,,30.78138889,-115.175,460.0,utf-8-sig,True,True,FECHA | PRECIP | EVAP | TMAX | TMIN,True,True,True,1948-06-17,1987-12-31,,,7508,0,0,7508,0,0,
Baja_California,dia02100.txt,Baja_California\diario\dia02100.txt,02100,02100,EJIDO LEANDRO VALLE,BAJA CALIFORNIA,ENSENADA,SUSPENDIDA,,31.26666667,-115.7666667,100.0,utf-8-sig,True,True,FECHA | PRECIP | EVAP | TMAX | TMIN,True,True,True,1976-01-01,1987-08-30,,,4076,0,0,4076,0,0,
Baja_California,dia02101.txt,Baja_California\diario\dia02101.txt,02101,02101,EL CENTINELA,BAJA CALIFORNIA,MEXICALI,OPERANDO,,32.57527778,-115.7419444,50.0,utf-8-sig,True,True,FECHA | PRECIP | EVAP | TMAX | TMIN,True,True,True,1975-08-16,2021-06-30,2001-01-01,2021-06-30,8348,2884,0,5464,2884,0,
Baja_California,dia02102.txt,Baja_California\diario\dia02102.txt,02102,02102,LA VENTANA,BAJA CALIFORNIA,MEXICALI,SUSPENDIDA,,31.43972222,-115.0536111,16.0,utf-8-sig,True,True,FECHA | PRECIP | EVAP | TMAX | TMIN,True,True,True,1975-02-01,2003-03-31,2001-01-01,2003-03-31,8102,776,0,7326,776,0,
Baja_California,dia02104.txt,Baja_California\diario\dia02104.txt,02104,02104,El CIPRES,BAJA CALIFORNIA,ENSENADA,SUSPENDIDA,,31.79027778,-116.5880556,8.0,utf-8-sig,True,True,FECHA | PRECIP | EVAP | TMAX | TMIN,True,True,True,1976-06-01,2014-10-31,2001-01-01,2014-10-31,12051,4632,0,7419,4632,0,
Baja_California,dia02105.txt,Baja_California\diario\dia02105.txt,02105,02105,SAN PEDRO MARTIR (PARQUE NACIONAL),BAJA CALIFORNIA,SAN QUINTÍN,SUSPENDIDA,,30.96888889,-115.5816667,2500.0,utf-8-sig,True,True,FECHA | PRECIP | EVAP | TMAX | TMIN,True,True,True,1976-12-01,1998-09-30,,,4593,0,0,4593,0,0,
Baja_California,dia02106.txt,Baja_California\diario\dia02106.txt,02106,02106,MANEADERO,BAJA CALIFORNIA,ENSENADA,SUSPENDIDA,,31.69555556,-116.5727778,50.0,utf-8-sig,True,True,FECHA | PRECIP | EVAP | TMAX | TMIN,True,True,True,1977-10-13,2016-12-31,2001-01-01,2016-12-31,10933,4787,0,6146,4787,0,
Baja_California,dia02107.txt,Baja_California\diario\dia02107.txt,02107,02107,PERCEBU,BAJA CALIFORNIA,ENSENADA,OPERANDO,,30.88555556,-114.7791667,4.0,utf-8-sig,True,True,FECHA | PRECIP | EVAP | TMAX | TMIN,True,True,True,1976-01-01,2020-12-31,2001-01-01,2020-12-31,10573,6430,0,4143,6430,0,
Baja_California,dia02108.txt,Baja_California\diario\dia02108.txt,02108,02108,PUNTA BANDA,BAJA CALIFORNIA,ENSENADA,OPERANDO,,31.71388889,-116.6661111,15.0,utf-8-sig,True,True,FECHA | PRECIP | EVAP | TMAX | TMIN,True,True,True,1977-10-04,2026-03-05,2001-01-01,2025-12-31,15780,8701,0,7079,8701,0,
Baja_California,dia02109.txt,Baja_California\diario\dia02109.txt,02109,02109,SANTA ROSALITA,BAJA CALIFORNIA,SAN QUINTÍN,OPERANDO,,28.66805556,-114.2369444,8.0,utf-8-sig,True,True,FECHA | PRECIP | EVAP | TMAX | TMIN,True,True,True,1977-12-13,2020-12-31,2001-01-01,2020-12-31,13017,6392,0,6625,6392,0,
Baja_California,dia02110.txt,Baja_California\diario\dia02110.txt,02110,02110,GUAYAQUIL,BAJA CALIFORNIA,SAN QUINTÍN,OPERANDO,,29.96722222,-115.0969444,530.0,utf-8-sig,True,True,FECHA | PRECIP | EVAP | TMAX | TMIN,True,True,True,1977-12-01,2018-03-31,2001-01-01,2018-03-31,13371,6268,0,7103,6268,0,
Baja_California,dia02111.txt,Baja_California\diario\dia02111.txt,02111,02111,EJIDO NUEVO BAJA CALIFORNIA,BAJA CALIFORNIA,SAN QUINTÍN,OPERANDO,,30.51722222,-115.9313889,17.0,utf-8-sig,True,True,FECHA | PRECIP | EVAP | TMAX | TMIN,True,True,True,1977-11-19,2024-02-29,2001-01-01,2024-02-29,13663,6718,0,6945,6718,0,
Baja_California,dia02114.txt,Baja_California\diario\dia02114.txt,02114,02114,EJIDO CARMEN SERDAN,BAJA CALIFORNIA,TECATE,OPERANDO,,32.24361111,-116.5844444,560.0,utf-8-sig,True,True,FECHA | PRECIP | EVAP | TMAX | TMIN,True,True,True,1979-10-10,2026-03-04,2001-01-01,2025-12-27,12155,6332,0,5823,6332,0,
Baja_California,dia02118.txt,Baja_California\diario\dia02118.txt,02118,02118,VALLE DE SAN RAFAEL,BAJA CALIFORNIA,ENSENADA,OPERANDO,,31.91888889,-116.2341667,721.0,utf-8-sig,True,True,FECHA | PRECIP | EVAP | TMAX | TMIN,True,True,True,1979-11-01,2021-12-20,2001-01-01,2021-12-20,13494,7171,0,6323,7171,0,
Baja_California,dia02119.txt,Baja_California\diario\dia02119.txt,02119,02119,CANCIO,BAJA CALIFORNIA,TIJUANA,SUSPENDIDA,,32.30972222,-116.6,450.0,utf-8-sig,True,True,FECHA | PRECIP | EVAP | TMAX | TMIN,True,True,True,1980-11-01,1996-02-29,,,4838,0,0,4838,0,0,
Baja_California,dia02120.txt,Baja_California\diario\dia02120.txt,02120,02120,EJIDO MEXICO,BAJA CALIFORNIA,ENSENADA,OPERANDO,,31.07222222,-116.2061111,75.0,utf-8-sig,True,True,FECHA | PRECIP | EVAP | TMAX | TMIN,True,True,True,1980-10-01,2020-12-31,2001-01-01,2020-12-31,12402,7274,0,5128,7274,0,
Baja_California,dia02121.txt,Baja_California\diario\dia02121.txt,02121,02121,EL HONGO,BAJA CALIFORNIA,TECATE,OPERANDO,,32.51638889,-116.3027778,960.0,utf-8-sig,True,True,FECHA | PRECIP | EVAP | TMAX | TMIN,True,True,True,1978-12-01,2026-02-11,2001-01-01,2025-12-31,16447,8951,0,7496,8951,0,
Baja_California,dia02122.txt,Baja_California\diario\dia02122.txt,02122,02122,REAL DEL CASTILLO VIEJO,BAJA CALIFORNIA,ENSENADA,SUSPENDIDA,,31.95138889,-116.7458333,610.0,utf-8-sig,True,True,FECHA | PRECIP | EVAP | TMAX | TMIN,True,True,True,1980-01-01,1990-12-31,,,3686,0,0,3686,0,0,
Baja_California,dia02124.txt,Baja_California\diario\dia02124.txt,02124,02124,EL CARRIZO II,BAJA CALIFORNIA,TECATE,OPERANDO,,32.49055556,-116.6838889,300.0,utf-8-sig,True,True,FECHA | PRECIP | EVAP | TMAX | TMIN,True,True,True,1980-01-04,2026-03-06,2001-01-01,2025-12-31,16440,9100,0,7340,9100,0,
Baja_California,dia02131.txt,Baja_California\diario\dia02131.txt,02131,02131,EJIDO RUBEN JARAMILLO,BAJA CALIFORNIA,SAN QUINTÍN,SUSPENDIDA,,30.92361111,-116.1275,60.0,utf-8-sig,True,True,FECHA | PRECIP | EVAP | TMAX | TMIN,True,True,True,1980-09-01,1984-12-31,,,792,0,0,792,0,0,
Baja_California,dia02132.txt,Baja_California\diario\dia02132.txt,02132,02132,EJIDO ZARAHEMILA,BAJA CALIFORNIA,SAN QUINTÍN,SUSPENDIDA,,30.69027778,-116.0063889,8.0,utf-8-sig,True,True,FECHA | PRECIP | EVAP | TMAX | TMIN,True,True,True,1980-01-01,1991-04-30,,,3649,0,0,3649,0,0,
Baja_California,dia02134.txt,Baja_California\diario\dia02134.txt,02134,02134,EJIDO CUERNAVACA,BAJA CALIFORNIA,MEXICALI,SUSPENDIDA,,32.56166667,-115.3055556,8.0,utf-8-sig,True,True,FECHA | PRECIP | EVAP | TMAX | TMIN,True,True,True,1981-01-01,1987-11-30,,,2283,0,0,2283,0,0,
Baja_California,dia02136.txt,Baja_California\diario\dia02136.txt,02136,02136,AGUA HECHICERA,BAJA CALIFORNIA,TECATE,SUSPENDIDA,,32.53694444,-116.62,1165.0,utf-8-sig,True,True,FECHA | PRECIP | EVAP | TMAX | TMIN,True,True,True,2004-01-01,2014-06-30,2004-01-01,2014-06-30,3050,3050,0,0,3050,0,
Baja_California,dia02137.txt,Baja_California\diario\dia02137.txt,02137,02137,COLONIA MARIANA,BAJA CALIFORNIA,MEXICALI,OPERANDO,,32.25861111,-115.3222222,9.0,utf-8-sig,True,True,FECHA | PRECIP | EVAP | TMAX | TMIN,True,True,True,1981-06-11,2023-09-30,2001-01-01,2023-09-30,14388,7469,0,6919,7469,0,
Baja_California,dia02138.txt,Baja_California\diario\dia02138.txt,02138,02138,COLONIA SIETE,BAJA CALIFORNIA,MEXICALI,OPERANDO,,32.53,-115.4111111,7.0,utf-8-sig,True,True,FECHA | PRECIP | EVAP | TMAX | TMIN,True,True,True,1982-01-01,2024-09-30,2013-01-05,2024-09-30,9156,4256,0,4900,4256,0,
Baja_California,dia02139.txt,Baja_California\diario\dia02139.txt,02139,02139,COLONIA RODRIGUEZ,BAJA CALIFORNIA,MEXICALI,OPERANDO,,32.41861111,-115.0361111,17.0,utf-8-sig,True,True,FECHA | PRECIP | EVAP | TMAX | TMIN,True,True,True,1982-01-01,2020-12-31,2001-01-01,2020-12-31,10573,7243,0,3330,7243,0,
Baja_California,dia02140.txt,Baja_California\diario\dia02140.txt,02140,02140,COLONIA ZARAGOZA,BAJA CALIFORNIA,MEXICALI,SUSPENDIDA,,32.61027778,-115.5311111,8.0,utf-8-sig,True,True,FECHA | PRECIP | EVAP | TMAX | TMIN,True,True,True,1950-02-01,2002-06-30,2001-01-01,2002-06-30,2612,546,0,2066,546,0,
Baja_California,dia02141.txt,Baja_California\diario\dia02141.txt,02141,02141,COMPUERTA BENASSINI,BAJA CALIFORNIA,MEXICALI,OPERANDO,,32.57027778,-115.1108333,20.0,utf-8-sig,True,True,FECHA | PRECIP | EVAP | TMAX | TMIN,True,True,True,1982-01-01,2020-12-31,2001-01-01,2020-12-31,12642,6848,0,5794,6848,0,
Baja_California,dia02142.txt,Baja_California\diario\dia02142.txt,02142,02142,EJIDO GUADALAJARA,BAJA CALIFORNIA,MEXICALI,SUSPENDIDA,,32.54777778,-114.8786111,8.0,utf-8-sig,True,True,FECHA | PRECIP | EVAP | TMAX | TMIN,True,True,True,1982-01-01,1987-02-28,,,1643,0,0,1643,0,0,
Baja_California,dia02143.txt,Baja_California\diario\dia02143.txt,02143,02143,EJIDO PLAN LIBERTADOR,BAJA CALIFORNIA,PLAYAS DE ROSARITO,SUSPENDIDA,,32.4,-117.0,200.0,utf-8-sig,True,True,FECHA | PRECIP | EVAP | TMAX | TMIN,True,True,True,1982-01-01,1984-10-31,,,1032,0,0,1032,0,0,
Baja_California,dia02144.txt,Baja_California\diario\dia02144.txt,02144,02144,ENSENADA BLANCA,BAJA CALIFORNIA,SAN QUINTÍN,SUSPENDIDA,,28.41055556,-113.8638889,10.0,utf-8-sig,True,True,FECHA | PRECIP | EVAP | TMAX | TMIN,True,True,True,1953-10-01,1985-11-25,,,3905,0,0,3905,0,0,
Baja_California,dia02145.txt,Baja_California\diario\dia02145.txt,02145,02145,RANCHO WILLIAMS,BAJA CALIFORNIA,MEXICALI,SUSPENDIDA,,32.62444444,-114.8777778,29.0,utf-8-sig,True,True,FECHA | PRECIP | EVAP | TMAX | TMIN,True,True,True,1982-01-01,2014-09-30,2001-01-01,2014-09-30,11202,4554,0,6648,4554,0,
Baja_California,dia02146.txt,Baja_California\diario\dia02146.txt,02146,02146,COLONIA SAN PEDRO MARTIR,BAJA CALIFORNIA,ENSENADA,SUSPENDIDA,,31.0375,-115.2041667,416.0,utf-8-sig,True,True,FECHA | PRECIP | EVAP | TMAX | TMIN,True,True,True,1981-06-11,2012-12-31,2001-01-01,2012-12-31,10307,4383,0,5924,4383,0,
Baja_California,dia02148.txt,Baja_California\diario\dia02148.txt,02148,02148,SAN FELIPE (OBS),BAJA CALIFORNIA,MEXICALI,OPERANDO,76055,31.02916667,-114.8394444,15.0,utf-8-sig,True,True,FECHA | PRECIP | EVAP | TMAX | TMIN,True,True,True,1982-04-01,2025-12-08,2001-01-01,2025-12-08,10208,8845,0,1363,8845,0,
Baja_California,dia02149.txt,Baja_California\diario\dia02149.txt,02149,02149,PUERTECITOS,BAJA CALIFORNIA,ENSENADA,SUSPENDIDA,,30.36722222,-114.8083333,20.0,utf-8-sig,True,True,FECHA | PRECIP | EVAP | TMAX | TMIN,True,True,True,1982-01-01,1986-12-31,,,1795,0,0,1795,0,0,
Baja_California,dia02150.txt,Baja_California\diario\dia02150.txt,02150,02150,PUNTA FINAL,BAJA CALIFORNIA,ENSENADA,SUSPENDIDA,,29.7375,-114.31,3.0,utf-8-sig,True,True,FECHA | PRECIP | EVAP | TMAX | TMIN,True,True,True,1982-02-04,1998-12-31,,,3461,0,0,3461,0,0,
Baja_California,dia02151.txt,Baja_California\diario\dia02151.txt,02151,02151,AGUA DE CHALE,BAJA CALIFORNIA,ENSENADA,OPERANDO,,30.63805556,-114.75,5.0,utf-8-sig,True,True,FECHA | PRECIP | EVAP | TMAX | TMIN,True,True,True,1982-04-01,2024-12-31,2001-01-01,2024-12-31,13003,7610,0,5393,7610,0,
Baja_California,dia02152.txt,Baja_California\diario\dia02152.txt,02152,02152,EJIDO JOSE MARIA PINO SUAREZ,BAJA CALIFORNIA,TECATE,OPERANDO,,32.37277778,-116.0680556,1380.0,utf-8-sig,True,True,FECHA | PRECIP | EVAP | TMAX | TMIN,True,True,True,1982-01-01,2025-04-30,2004-01-01,2025-04-30,11885,7425,0,4460,7425,0,
Baja_California,dia02153.txt,Baja_California\diario\dia02153.txt,02153,02153,EJIDO URUAPAN,BAJA CALIFORNIA,ENSENADA,OPERANDO,,31.61861111,-116.455,195.0,utf-8-sig,True,True,FECHA | PRECIP | EVAP | TMAX | TMIN,True,True,True,1982-04-01,2022-02-02,2001-01-01,2022-02-02,13147,7010,0,6137,7010,0,
Baja_California,dia02154.txt,Baja_California\diario\dia02154.txt,02154,02154,COLONIA ZACATECAS,BAJA CALIFORNIA,MEXICALI,OPERANDO,,32.06027778,-115.0594444,12.0,utf-8-sig,True,True,FECHA | PRECIP | EVAP | TMAX | TMIN,True,True,True,1982-01-01,2020-12-31,2001-01-01,2020-12-31,12211,7183,0,5028,7183,0,
Baja_California,dia02156.txt,Baja_California\diario\dia02156.txt,02156,02156,EL FLORIDO,BAJA CALIFORNIA,ENSENADA,OPERANDO,,32.47222222,-116.8211111,250.0,utf-8-sig,True,True,FECHA | PRECIP | EVAP | TMAX | TMIN,True,True,True,1988-12-01,2026-03-06,2001-01-01,2025-12-31,13360,9131,0,4229,9131,0,
Baja_California,dia02160.txt,Baja_California\diario\dia02160.txt,02160,02160,EJIDO JAMAU,BAJA CALIFORNIA,ENSENADA,SUSPENDIDA,,31.50277778,-115.725,980.0,utf-8-sig,True,True,FECHA | PRECIP | EVAP | TMAX | TMIN,True,True,True,1988-11-06,1999-04-30,,,3116,0,0,3116,0,0,
Baja_California,dia02162.txt,Baja_California\diario\dia02162.txt,02162,02162,CAMALAJUE,BAJA CALIFORNIA,ENSENADA,SUSPENDIDA,,29.68333333,-114.1666667,20.0,utf-8-sig,True,True,FECHA | PRECIP | EVAP | TMAX | TMIN,True,True,True,2000-01-01,2001-09-30,2001-01-01,2001-09-30,639,273,0,366,273,0,
Baja_California,dia02163.txt,Baja_California\diario\dia02163.txt,02163,02163,EJIDO NUEVO LEON (OBS),BAJA CALIFORNIA,MEXICALI,OPERANDO,76040,32.41277778,-115.1919444,11.4,utf-8-sig,True,True,FECHA | PRECIP | EVAP | TMAX | TMIN,True,True,True,1992-01-01,2026-02-27,2001-01-01,2025-12-31,12099,8883,0,3216,8883,0,
Baja_California,dia02164.txt,Baja_California\diario\dia02164.txt,02164,02164,EJIDO EL PORVENIR,BAJA CALIFORNIA,ENSENADA,OPERANDO,,32.10638889,-115.8522222,330.0,utf-8-sig,True,True,FECHA | PRECIP | EVAP | TMAX | TMIN,True,True,True,1999-05-01,2024-12-31,2001-01-01,2024-12-31,8552,7947,0,605,7947,0,
Baja_California,dia02165.txt,Baja_California\diario\dia02165.txt,02165,02165,MESA DE SAN JACINTO,BAJA CALIFORNIA,SAN QUINTÍN,OPERANDO,,30.88444444,-116.1236111,53.0,utf-8-sig,True,True,FECHA | PRECIP | EVAP | TMAX | TMIN,True,True,True,1999-06-16,2020-12-31,2001-01-01,2020-12-31,7240,6725,0,515,6725,0,
Baja_California,dia02166.txt,Baja_California\diario\dia02166.txt,02166,02166,SAN PEDRO MARTIR (OBS. ASTRON.),BAJA CALIFORNIA,ENSENADA,SUSPENDIDA,,31.04416667,-115.4588889,2950.0,utf-8-sig,True,True,FECHA | PRECIP | EVAP | TMAX | TMIN,True,True,True,2000-01-01,2005-12-31,2001-01-01,2005-12-31,2192,1826,0,366,1826,0,
Baja_California,dia02167.txt,Baja_California\diario\dia02167.txt,02167,02167,RANCHO MELING,BAJA CALIFORNIA,SAN QUINTÍN,SUSPENDIDA,,30.97305556,-115.7452778,645.0,utf-8-sig,True,True,FECHA | PRECIP | EVAP | TMAX | TMIN,True,True,True,2000-11-01,2003-12-31,2001-02-01,2003-12-31,696,666,0,30,666,0,
Baja_California,dia02168.txt,Baja_California\diario\dia02168.txt,02168,02168,LOMA TOVA,BAJA CALIFORNIA,TECATE,OPERANDO,,32.541028,-116.417,992.0,utf-8-sig,True,True,FECHA | PRECIP | EVAP | TMAX | TMIN,True,True,True,2014-10-01,2024-12-31,2014-10-01,2024-12-31,3515,3515,0,0,3515,0,
Baja_California_Sur,dia03001.txt,Baja_California_Sur\diario\dia03001.txt,03001,03001,AEROPUERTO VIEJO,BAJA CALIFORNIA SUR,LA PAZ,SUSPENDIDA,,24.15,-110.2833333,20.0,utf-8-sig,True,True,FECHA | PRECIP | EVAP | TMAX | TMIN,True,True,True,1972-01-01,1982-12-31,,,2403,0,0,2403,0,0,
Baja_California_Sur,dia03002.txt,Baja_California_Sur\diario\dia03002.txt,03002,03002,BAHIA TORTUGAS,BAJA CALIFORNIA SUR,MULEGÉ,OPERANDO,,27.68888889,-114.8972222,15.0,utf-8-sig,True,True,FECHA | PRECIP | EVAP | TMAX | TMIN,True,True,True,1961-01-01,2025-09-30,2001-01-02,2025-09-30,21588,8403,0,13185,8403,0,
Baja_California_Sur,dia03003.txt,Baja_California_Sur\diario\dia03003.txt,03003,03003,BOCA DEL SALADO,BAJA CALIFORNIA SUR,LOS CABOS,OPERANDO,,23.28861111,-109.4377778,20.0,utf-8-sig,True,True,FECHA | PRECIP | EVAP | TMAX | TMIN,True,True,True,1957-07-01,2025-11-30,2001-01-01,2025-11-30,23773,8827,0,14946,8827,0,
Baja_California_Sur,dia03004.txt,Baja_California_Sur\diario\dia03004.txt,03004,03004,BUENAVISTA DE LORETO,BAJA CALIFORNIA SUR,COMONDÚ,OPERANDO,,25.12083333,-111.8133333,30.0,utf-8-sig,True,True,FECHA | PRECIP | EVAP | TMAX | TMIN,True,True,True,1940-09-09,2025-10-31,2001-01-01,2025-10-31,28905,8629,0,20276,8629,0,
Baja_California_Sur,dia03005.txt,Baja_California_Sur\diario\dia03005.txt,03005,03005,CABO SAN LUCAS,BAJA CALIFORNIA SUR,LOS CABOS,OPERANDO,,22.88194444,-109.9125,15.0,utf-8-sig,True,True,FECHA | PRECIP | EVAP | TMAX | TMIN,True,True,True,1937-06-01,2026-03-06,2001-01-01,2025-12-31,28983,9084,0,19899,9084,0,
Baja_California_Sur,dia03006.txt,Baja_California_Sur\diario\dia03006.txt,03006,03006,CADEGE,BAJA CALIFORNIA SUR,COMONDÚ,OPERANDO,,26.37611111,-112.5125,80.0,utf-8-sig,True,True,FECHA | PRECIP | EVAP | TMAX | TMIN,True,True,True,1961-01-01,2025-09-30,2001-01-01,2025-09-30,22490,8464,0,14026,8464,0,
Baja_California_Sur,dia03007.txt,Baja_California_Sur\diario\dia03007.txt,03007,03007,CADUAÑO,BAJA CALIFORNIA SUR,LOS CABOS,OPERANDO,,23.33194444,-109.9472222,200.0,utf-8-sig,True,True,FECHA | PRECIP | EVAP | TMAX | TMIN,True,True,True,1942-02-11,2025-11-30,2001-01-01,2025-11-30,29776,8841,0,20935,8841,0,
Baja_California_Sur,dia03008.txt,Baja_California_Sur\diario\dia03008.txt,03008,03008,COMONDU,BAJA CALIFORNIA SUR,COMONDÚ,OPERANDO,,26.05833333,-111.825,300.0,utf-8-sig,True,True,FECHA | PRECIP | EVAP | TMAX | TMIN,True,True,True,1934-11-01,2025-10-29,2001-01-01,2025-10-29,31756,8795,0,22961,8795,0,
Baja_California_Sur,dia03009.txt,Baja_California_Sur\diario\dia03009.txt,03009,03009,EL AGUAJITO,BAJA CALIFORNIA SUR,LA PAZ,OPERANDO,,24.83888889,-111.1272222,200.0,utf-8-sig,True,True,FECHA | PRECIP | EVAP | TMAX | TMIN,True,True,True,1961-01-01,2025-10-31,2001-01-01,2025-10-31,22897,8851,0,14046,8851,0,
Baja_California_Sur,dia03010.txt,Baja_California_Sur\diario\dia03010.txt,03010,03010,EL ALAMO,BAJA CALIFORNIA SUR,MULEGÉ,SUSPENDIDA,,27.1,-112.9333333,81.0,utf-8-sig,True,True,FECHA | PRECIP | EVAP | TMAX | TMIN,True,True,True,1955-04-16,2013-07-31,2013-06-01,2013-07-31,6932,61,0,6871,61,0,
Baja_California_Sur,dia03011.txt,Baja_California_Sur\diario\dia03011.txt,03011,03011,EL CAJONCITO,BAJA CALIFORNIA SUR,LA PAZ,OPERANDO,,24.14583333,-110.2055556,200.0,utf-8-sig,True,True,FECHA | PRECIP | EVAP | TMAX | TMIN,True,True,True,1964-05-21,2025-04-30,2001-01-01,2025-04-30,20762,8675,0,12087,8675,0,
Baja_California_Sur,dia03012.txt,Baja_California_Sur\diario\dia03012.txt,03012,03012,EL PASO DE IRITU,BAJA CALIFORNIA SUR,LA PAZ,OPERANDO,,24.77972222,-111.15,140.0,utf-8-sig,True,True,FECHA | PRECIP | EVAP | TMAX | TMIN,True,True,True,1940-12-01,2025-10-31,2001-01-01,2025-10-31,30789,8892,0,21897,8892,0,
Baja_California_Sur,dia03013.txt,Baja_California_Sur\diario\dia03013.txt,03013,03013,EL PILAR,BAJA CALIFORNIA SUR,LA PAZ,OPERANDO,,24.46972222,-111.0016667,120.0,utf-8-sig,True,True,FECHA | PRECIP | EVAP | TMAX | TMIN,True,True,True,1942-03-01,2025-12-31,2001-01-01,2025-12-31,28203,7977,0,20226,7977,0,
Baja_California_Sur,dia03014.txt,Baja_California_Sur\diario\dia03014.txt,03014,03014,EL MOLINO,BAJA CALIFORNIA SUR,COMONDÚ,OPERANDO,,24.84027778,-111.7833333,20.0,utf-8-sig,True,True,FECHA | PRECIP | EVAP | TMAX | TMIN,True,True,True,1940-09-09,2025-08-31,2002-03-04,2025-08-31,27641,8454,0,19187,8454,0,
Baja_California_Sur,dia03015.txt,Baja_California_Sur\diario\dia03015.txt,03015,03015,EL ROSARIO,BAJA CALIFORNIA SUR,LA PAZ,OPERANDO,,23.86111111,-110.6555556,45.0,utf-8-sig,True,True,FECHA | PRECIP | EVAP | TMAX | TMIN,True,True,True,1961-11-07,2025-11-30,2001-01-01,2025-11-30,21859,8450,0,13409,8450,0,
Baja_California_Sur,dia03016.txt,Baja_California_Sur\diario\dia03016.txt,03016,03016,EL ROSARITO,BAJA CALIFORNIA SUR,MULEGÉ,OPERANDO,,26.76416667,-112.4186111,640.0,utf-8-sig,True,True,FECHA | PRECIP | EVAP | TMAX | TMIN,True,True,True,1941-07-10,2025-12-18,2001-01-01,2025-12-18,29968,9008,0,20960,9008,0,
Baja_California_Sur,dia03017.txt,Baja_California_Sur\diario\dia03017.txt,03017,03017,EL TABLON,BAJA CALIFORNIA SUR,MULEGÉ,SUSPENDIDA,,27.76666667,-113.35,90.0,utf-8-sig,True,True,FECHA | PRECIP | EVAP | TMAX | TMIN,True,True,True,1956-05-01,1974-09-30,,,6310,0,0,6310,0,0,
Baja_California_Sur,dia03018.txt,Baja_California_Sur\diario\dia03018.txt,03018,03018,EL TRIUNFO,BAJA CALIFORNIA SUR,LA PAZ,OPERANDO,,23.80222222,-110.1091667,500.0,utf-8-sig,True,True,FECHA | PRECIP | EVAP | TMAX | TMIN,True,True,True,1961-04-18,2025-11-30,2001-01-01,2025-11-30,21509,9026,0,12483,9026,0,
Baja_California_Sur,dia03019.txt,Baja_California_Sur\diario\dia03019.txt,03019,03019,GUADALUPE,BAJA CALIFORNIA SUR,MULEGÉ,OPERANDO,,26.92222222,-112.4083333,720.0,utf-8-sig,True,True,FECHA | PRECIP | EVAP | TMAX | TMIN,True,True,True,1954-09-15,2025-10-30,2001-01-01,2025-10-30,21376,8255,0,13121,8255,0,
Baja_California_Sur,dia03020.txt,Baja_California_Sur\diario\dia03020.txt,03020,03020,IRAKY,BAJA CALIFORNIA SUR,LA PAZ,OPERANDO,,24.82861111,-111.2188889,140.0,utf-8-sig,True,True,FECHA | PRECIP | EVAP | TMAX | TMIN,True,True,True,1961-01-01,2025-10-31,2001-01-01,2025-10-31,20405,8777,0,11628,8777,0,
Baja_California_Sur,dia03021.txt,Baja_California_Sur\diario\dia03021.txt,03021,03021,LA AGUJA,BAJA CALIFORNIA SUR,LA PAZ,SUSPENDIDA,,23.98333333,-110.8833333,27.0,utf-8-sig,True,True,FECHA | PRECIP | EVAP | TMAX | TMIN,True,True,True,1961-01-19,1969-08-31,,,2070,0,0,2070,0,0,
Baja_California_Sur,dia03022.txt,Baja_California_Sur\diario\dia03022.txt,03022,03022,LA ANGOSTURA,BAJA CALIFORNIA SUR,COMONDÚ,OPERANDO,,25.05333333,-111.1222222,280.0,utf-8-sig,True,True,FECHA | PRECIP | EVAP | TMAX | TMIN,True,True,True,1961-01-01,2025-10-31,2001-01-01,2025-10-31,23120,8957,0,14163,8957,0,
Baja_California_Sur,dia03023.txt,Baja_California_Sur\diario\dia03023.txt,03023,03023,LAGUNILLAS,BAJA CALIFORNIA SUR,LA PAZ,OPERANDO,,24.02166667,-110.3552778,40.0,utf-8-sig,True,True,FECHA | PRECIP | EVAP | TMAX | TMIN,True,True,True,1952-09-01,2025-03-31,2002-09-04,2025-03-31,20243,7837,0,12406,7837,0,
Baja_California_Sur,dia03024.txt,Baja_California_Sur\diario\dia03024.txt,03024,03024,LA MAQUINA,BAJA CALIFORNIA SUR,LORETO,SUSPENDIDA,,25.46666667,-111.1833333,340.0,utf-8-sig,True,True,FECHA | PRECIP | EVAP | TMAX | TMIN,True,True,True,1964-11-01,1975-11-30,,,3310,0,0,3310,0,0,
Baja_California_Sur,dia03025.txt,Baja_California_Sur\diario\dia03025.txt,03025,03025,LA PALMA,BAJA CALIFORNIA SUR,MULEGÉ,SUSPENDIDA,,27.56666667,-112.6,100.0,utf-8-sig,True,True,FECHA | PRECIP | EVAP | TMAX | TMIN,True,True,True,1961-01-01,1967-06-30,,,2037,0,0,2037,0,0,
Baja_California_Sur,dia03026.txt,Baja_California_Sur\diario\dia03026.txt,03026,03026,LA PAZ (OBS),BAJA CALIFORNIA SUR,LA PAZ,OPERANDO,76405,24.11666667,-110.3166667,10.0,utf-8-sig,True,True,FECHA | PRECIP | EVAP | TMAX | TMIN,True,True,True,1943-02-01,2026-02-04,2001-01-01,2025-09-10,11143,3944,0,7199,3944,0,
Baja_California_Sur,dia03027.txt,Baja_California_Sur\diario\dia03027.txt,03027,03027,LA POZA GRANDE,BAJA CALIFORNIA SUR,COMONDÚ,OPERANDO,,25.76111111,-112.0375,25.0,utf-8-sig,True,True,FECHA | PRECIP | EVAP | TMAX | TMIN,True,True,True,1941-01-01,2025-09-30,2001-01-01,2025-09-30,29457,8774,0,20683,8774,0,
Baja_California_Sur,dia03028.txt,Baja_California_Sur\diario\dia03028.txt,03028,03028,LA POZA HONDA,BAJA CALIFORNIA SUR,COMONDÚ,OPERANDO,,25.36805556,-111.5194444,20.0,utf-8-sig,True,True,FECHA | PRECIP | EVAP | TMAX | TMIN,True,True,True,1952-03-26,2025-10-31,2001-01-01,2025-10-31,24495,8977,0,15518,8977,0,
Baja_California_Sur,dia03029.txt,Baja_California_Sur\diario\dia03029.txt,03029,03029,LA PURISIMA,BAJA CALIFORNIA SUR,COMONDÚ,OPERANDO,,26.18194444,-112.0777778,95.0,utf-8-sig,True,True,FECHA | PRECIP | EVAP | TMAX | TMIN,True,True,True,1938-09-01,2025-10-31,2001-01-01,2025-10-31,31537,9004,0,22533,9004,0,
Baja_California_Sur,dia03030.txt,Baja_California_Sur\diario\dia03030.txt,03030,03030,LA RIBERA,BAJA CALIFORNIA SUR,LOS CABOS,OPERANDO,,23.59722222,-109.5861111,15.0,utf-8-sig,True,True,FECHA | PRECIP | EVAP | TMAX | TMIN,True,True,True,1946-10-17,2026-03-06,2001-01-01,2025-12-31,28856,9059,0,19797,9059,0,
Baja_California_Sur,dia03031.txt,Baja_California_Sur\diario\dia03031.txt,03031,03031,LA SOLEDAD NTE,BAJA CALIFORNIA SUR,LA PAZ,OPERANDO,,24.8125,-110.9805556,340.0,utf-8-sig,True,True,FECHA | PRECIP | EVAP | TMAX | TMIN,True,True,True,1961-01-01,2025-10-31,2001-01-01,2025-10-31,21970,8664,0,13306,8664,0,
Baja_California_Sur,dia03032.txt,Baja_California_Sur\diario\dia03032.txt,03032,03032,LAS BARRACAS,BAJA CALIFORNIA SUR,LOS CABOS,OPERANDO,,23.47222222,-109.4527778,12.0,utf-8-sig,True,True,FECHA | PRECIP | EVAP | TMAX | TMIN,True,True,True,1970-04-10,2025-11-30,2001-01-01,2025-11-30,19154,8237,0,10917,8237,0,
Baja_California_Sur,dia03033.txt,Baja_California_Sur\diario\dia03033.txt,03033,03033,LAS CRUCES,BAJA CALIFORNIA SUR,COMONDÚ,OPERANDO,,25.39722222,-111.755,40.0,utf-8-sig,True,True,FECHA | PRECIP | EVAP | TMAX | TMIN,True,True,True,1952-03-01,2025-09-30,2001-01-01,2025-09-30,25131,8721,0,16410,8721,0,
Baja_California_Sur,dia03034.txt,Baja_California_Sur\diario\dia03034.txt,03034,03034,LAS LAGUNAS,BAJA CALIFORNIA SUR,MULEGÉ,SUSPENDIDA,,27.6,-113.5666667,20.0,utf-8-sig,True,True,FECHA | PRECIP | EVAP | TMAX | TMIN,True,True,True,1943-03-01,1976-12-31,,,10476,0,0,10476,0,0,
Baja_California_Sur,dia03035.txt,Baja_California_Sur\diario\dia03035.txt,03035,03035,LORETO (DGE),BAJA CALIFORNIA SUR,LORETO,OPERANDO,,26.01277778,-111.3433333,20.0,utf-8-sig,True,True,FECHA | PRECIP | EVAP | TMAX | TMIN,True,True,True,1938-08-01,2026-03-06,2001-01-01,2025-12-31,30748,9128,0,21620,9128,0,
Baja_California_Sur,dia03036.txt,Baja_California_Sur\diario\dia03036.txt,03036,03036,LOS DIVISADEROS,BAJA CALIFORNIA SUR,LA PAZ,OPERANDO,,23.89305556,-110.1430556,490.0,utf-8-sig,True,True,FECHA | PRECIP | EVAP | TMAX | TMIN,True,True,True,1943-08-01,2025-11-30,2001-01-01,2025-11-30,29150,8555,0,20595,8555,0,
Baja_California_Sur,dia03037.txt,Baja_California_Sur\diario\dia03037.txt,03037,03037,SAN JUAN DE LOS PLANES,BAJA CALIFORNIA SUR,LA PAZ,OPERANDO,,23.96805556,-109.9361111,20.0,utf-8-sig,True,True,FECHA | PRECIP | EVAP | TMAX | TMIN,True,True,True,1951-10-23,2026-03-06,2001-01-01,2025-12-31,24565,9101,0,15464,9101,0,
Baja_California_Sur,dia03038.txt,Baja_California_Sur\diario\dia03038.txt,03038,03038,MULEGE,BAJA CALIFORNIA SUR,MULEGÉ,OPERANDO,,26.88888889,-111.9844444,10.0,utf-8-sig,True,True,FECHA | PRECIP | EVAP | TMAX | TMIN,True,True,True,1922-01-01,2026-03-06,2001-01-01,2025-12-31,35247,8926,0,26321,8926,0,
Baja_California_Sur,dia03039.txt,Baja_California_Sur\diario\dia03039.txt,03039,03039,OJO DE AGUA,BAJA CALIFORNIA SUR,COMONDÚ,SUSPENDIDA,,26.32416667,-111.9847222,180.0,utf-8-sig,True,True,FECHA | PRECIP | EVAP | TMAX | TMIN,True,True,True,1941-07-22,2017-03-31,2001-01-01,2017-03-31,24184,5872,0,18312,5872,0,
Baja_California_Sur,dia03040.txt,Baja_California_Sur\diario\dia03040.txt,03040,03040,EL CIRUELITO,BAJA CALIFORNIA SUR,LA PAZ,OPERANDO,,23.87805556,-110.1130556,620.0,utf-8-sig,True,True,FECHA | PRECIP | EVAP | TMAX | TMIN,True,True,True,2013-01-01,2025-11-30,2013-01-01,2025-11-30,3872,3872,0,0,3872,0,
Baja_California_Sur,dia03041.txt,Baja_California_Sur\diario\dia03041.txt,03041,03041,PATROCINIO,BAJA CALIFORNIA SUR,MULEGÉ,OPERANDO,,26.82083333,-112.7972222,249.0,utf-8-sig,True,True,FECHA | PRECIP | EVAP | TMAX | TMIN,True,True,True,1961-01-01,2025-10-31,2001-01-01,2025-10-31,22410,8929,0,13481,8929,0,
Baja_California_Sur,dia03042.txt,Baja_California_Sur\diario\dia03042.txt,03042,03042,LAS POCITAS,BAJA CALIFORNIA SUR,LA PAZ,OPERANDO,,24.39166667,-111.1083333,50.0,utf-8-sig,True,True,FECHA | PRECIP | EVAP | TMAX | TMIN,True,True,True,1952-09-01,2025-10-31,2001-01-01,2025-10-31,25432,8605,0,16827,8605,0,
Baja_California_Sur,dia03043.txt,Baja_California_Sur\diario\dia03043.txt,03043,03043,PUERTO ADOLFO LOPEZ MATEOS,BAJA CALIFORNIA SUR,COMONDÚ,OPERANDO,,25.19527778,-112.1111111,10.0,utf-8-sig,True,True,FECHA | PRECIP | EVAP | TMAX | TMIN,True,True,True,1965-06-09,2025-09-30,2001-01-01,2025-09-30,20429,8892,0,11537,8892,0,
Baja_California_Sur,dia03044.txt,Baja_California_Sur\diario\dia03044.txt,03044,03044,SAN LUCAS,BAJA CALIFORNIA SUR,MULEGÉ,OPERANDO,,27.22138889,-112.2205556,6.0,utf-8-sig,True,True,FECHA | PRECIP | EVAP | TMAX | TMIN,True,True,True,2013-10-05,2025-10-31,2013-10-05,2025-10-31,4401,4401,0,0,4401,0,
Baja_California_Sur,dia03045.txt,Baja_California_Sur\diario\dia03045.txt,03045,03045,PUERTO SAN CARLOS,BAJA CALIFORNIA SUR,COMONDÚ,OPERANDO,,24.79166667,-112.1111111,10.0,utf-8-sig,True,True,FECHA | PRECIP | EVAP | TMAX | TMIN,True,True,True,1967-06-08,2025-09-29,2001-01-01,2025-09-29,20205,8861,0,11344,8861,0,
Baja_California_Sur,dia03046.txt,Baja_California_Sur\diario\dia03046.txt,03046,03046,PUERTO CORTES (OBS),BAJA CALIFORNIA SUR,COMONDÚ,SUSPENDIDA,76401,24.47805556,-111.8222222,6.0,utf-8-sig,True,True,FECHA | PRECIP | EVAP | TMAX | TMIN,True,True,True,1967-11-01,2001-06-30,2001-01-01,2001-06-30,6948,119,0,6829,119,0,
Baja_California_Sur,dia03047.txt,Baja_California_Sur\diario\dia03047.txt,03047,03047,PUNTA ABREOJOS,BAJA CALIFORNIA SUR,MULEGÉ,OPERANDO,,26.71555556,-113.5741667,20.0,utf-8-sig,True,True,FECHA | PRECIP | EVAP | TMAX | TMIN,True,True,True,1955-04-16,2025-10-31,2001-01-01,2025-10-31,24309,8783,0,15526,8783,0,
Baja_California_Sur,dia03048.txt,Baja_California_Sur\diario\dia03048.txt,03048,03048,BOCA DE LA SIERRA,BAJA CALIFORNIA SUR,LOS CABOS,OPERANDO,,23.38527778,-109.8169444,467.0,utf-8-sig,True,True,FECHA | PRECIP | EVAP | TMAX | TMIN,True,True,True,2016-04-01,2025-11-30,2016-04-01,2025-11-30,2864,2864,0,0,2864,0,
Baja_California_Sur,dia03049.txt,Baja_California_Sur\diario\dia03049.txt,03049,03049,SAN ANTONIO SUR,BAJA CALIFORNIA SUR,LA PAZ,OPERANDO,,23.80694444,-110.0583333,400.0,utf-8-sig,True,True,FECHA | PRECIP | EVAP | TMAX | TMIN,True,True,True,1938-06-01,2026-03-06,2001-01-01,2025-12-31,26622,9105,0,17517,9105,0,
Baja_California_Sur,dia03050.txt,Baja_California_Sur\diario\dia03050.txt,03050,03050,SAN BARTOLO,BAJA CALIFORNIA SUR,LA PAZ,OPERANDO,,23.74166667,-109.8402778,395.0,utf-8-sig,True,True,FECHA | PRECIP | EVAP | TMAX | TMIN,True,True,True,1941-01-01,2026-03-06,2001-01-01,2025-12-31,30414,9037,0,21377,9037,0,
Baja_California_Sur,dia03051.txt,Baja_California_Sur\diario\dia03051.txt,03051,03051,SAN FELIPE,BAJA CALIFORNIA SUR,LOS CABOS,OPERANDO,,23.10833333,-109.8541667,380.0,utf-8-sig,True,True,FECHA | PRECIP | EVAP | TMAX | TMIN,True,True,True,1939-02-01,2025-11-30,2001-01-01,2025-11-30,30575,8848,0,21727,8848,0,
Baja_California_Sur,dia03052.txt,Baja_California_Sur\diario\dia03052.txt,03052,03052,SAN IGNACIO,BAJA CALIFORNIA SUR,MULEGÉ,OPERANDO,,27.29861111,-112.875,150.0,utf-8-sig,True,True,FECHA | PRECIP | EVAP | TMAX | TMIN,True,True,True,1938-12-01,2025-09-30,2001-01-01,2025-09-30,29674,8747,0,20927,8747,0,
Baja_California_Sur,dia03053.txt,Baja_California_Sur\diario\dia03053.txt,03053,03053,SAN JACINTO,BAJA CALIFORNIA SUR,LA PAZ,OPERANDO,,23.2375,-110.0680556,95.0,utf-8-sig,True,True,FECHA | PRECIP | EVAP | TMAX | TMIN,True,True,True,1953-02-01,2025-11-30,2001-01-01,2025-11-30,25565,8462,0,17103,8462,0,
Baja_California_Sur,dia03054.txt,Baja_California_Sur\diario\dia03054.txt,03054,03054,SAN JAVIER,BAJA CALIFORNIA SUR,LORETO,OPERANDO,,25.86527778,-111.5444444,200.0,utf-8-sig,True,True,FECHA | PRECIP | EVAP | TMAX | TMIN,True,True,True,1953-03-14,2025-09-30,2001-01-01,2025-09-30,24675,8874,0,15801,8874,0,
Baja_California_Sur,dia03055.txt,Baja_California_Sur\diario\dia03055.txt,03055,03055,SAN JOSE DE GRACIA,BAJA CALIFORNIA SUR,MULEGÉ,OPERANDO,,26.58888889,-112.7222222,140.0,utf-8-sig,True,True,FECHA | PRECIP | EVAP | TMAX | TMIN,True,True,True,1954-04-11,2025-03-31,2001-01-01,2025-03-31,24704,8255,0,16449,8255,0,
Baja_California_Sur,dia03056.txt,Baja_California_Sur\diario\dia03056.txt,03056,03056,SAN JOSE DEL CABO,BAJA CALIFORNIA SUR,LOS CABOS,OPERANDO,,23.06944444,-109.7069444,10.0,utf-8-sig,True,True,FECHA | PRECIP | EVAP | TMAX | TMIN,True,True,True,1926-12-01,2026-03-06,2001-01-03,2025-12-31,31746,8318,0,23428,8318,0,
Baja_California_Sur,dia03057.txt,Baja_California_Sur\diario\dia03057.txt,03057,03057,SAN JUANICO,BAJA CALIFORNIA SUR,COMONDÚ,OPERANDO,,26.25694444,-112.4827778,20.0,utf-8-sig,True,True,FECHA | PRECIP | EVAP | TMAX | TMIN,True,True,True,1961-01-01,2025-04-30,2001-01-01,2025-04-30,22219,8665,0,13554,8665,0,
Baja_California_Sur,dia03058.txt,Baja_California_Sur\diario\dia03058.txt,03058,03058,SAN PEDRO,BAJA CALIFORNIA SUR,LA PAZ,OPERANDO,,23.925,-110.2638889,190.0,utf-8-sig,True,True,FECHA | PRECIP | EVAP | TMAX | TMIN,True,True,True,1941-06-22,2025-11-30,2001-01-01,2025-11-30,28231,8236,0,19995,8236,0,
Baja_California_Sur,dia03060.txt,Baja_California_Sur\diario\dia03060.txt,03060,03060,SANTA GERTRUDIS,BAJA CALIFORNIA SUR,LA PAZ,OPERANDO,,23.53333333,-110.0744444,520.0,utf-8-sig,True,True,FECHA | PRECIP | EVAP | TMAX | TMIN,True,True,True,1940-10-01,2025-11-30,2001-01-01,2025-11-30,30567,8916,0,21651,8916,0,
Baja_California_Sur,dia03061.txt,Baja_California_Sur\diario\dia03061.txt,03061,03061,SANTA ROSALIA (DGE),BAJA CALIFORNIA SUR,MULEGÉ,OPERANDO,,27.33888889,-112.2697222,10.0,utf-8-sig,True,True,FECHA | PRECIP | EVAP | TMAX | TMIN,True,True,True,1929-11-01,2026-03-06,2001-01-08,2025-12-31,32839,8928,0,23911,8928,0,
Baja_California_Sur,dia03062.txt,Baja_California_Sur\diario\dia03062.txt,03062,03062,SANTIAGO,BAJA CALIFORNIA SUR,LOS CABOS,OPERANDO,,23.48222222,-109.7183333,132.0,utf-8-sig,True,True,FECHA | PRECIP | EVAP | TMAX | TMIN,True,True,True,1937-01-05,2026-03-06,2001-01-01,2025-12-31,31578,8980,0,22598,8980,0,
Baja_California_Sur,dia03063.txt,Baja_California_Sur\diario\dia03063.txt,03063,03063,SANTO DOMINGO,BAJA CALIFORNIA SUR,COMONDÚ,OPERANDO,,25.49027778,-111.9152778,18.0,utf-8-sig,True,True,FECHA | PRECIP | EVAP | TMAX | TMIN,True,True,True,1953-03-01,2025-03-31,2001-01-01,2025-03-31,24861,8759,0,16102,8759,0,
Baja_California_Sur,dia03064.txt,Baja_California_Sur\diario\dia03064.txt,03064,03064,SIERRA DE LA LAGUNA,BAJA CALIFORNIA SUR,LA PAZ,SUSPENDIDA,,23.54861111,-110.0958333,85.0,utf-8-sig,True,True,FECHA | PRECIP | EVAP | TMAX | TMIN,True,True,True,1961-01-01,1983-12-15,,,5823,0,0,5823,0,0,
Baja_California_Sur,dia03065.txt,Baja_California_Sur\diario\dia03065.txt,03065,03065,TEPENTU,BAJA CALIFORNIA SUR,COMONDÚ,OPERANDO,,25.09166667,-111.3255556,180.0,utf-8-sig,True,True,FECHA | PRECIP | EVAP | TMAX | TMIN,True,True,True,1961-01-01,2025-03-31,2001-01-01,2025-03-31,22879,8850,0,14029,8850,0,
Baja_California_Sur,dia03066.txt,Baja_California_Sur\diario\dia03066.txt,03066,03066,TODOS SANTOS (DGE),BAJA CALIFORNIA SUR,LA PAZ,OPERANDO,,23.44861111,-110.2233333,10.0,utf-8-sig,True,True,FECHA | PRECIP | EVAP | TMAX | TMIN,True,True,True,1939-10-01,2026-03-06,2001-01-01,2025-12-31,30396,8807,0,21589,8807,0,
Baja_California_Sur,dia03067.txt,Baja_California_Sur\diario\dia03067.txt,03067,03067,YENEKA,BAJA CALIFORNIA SUR,LOS CABOS,OPERANDO,,23.27083333,-109.7791667,160.0,utf-8-sig,True,True,FECHA | PRECIP | EVAP | TMAX | TMIN,True,True,True,1961-05-08,2025-02-26,2001-01-01,2025-02-26,21068,7968,0,13100,7968,0,
Baja_California_Sur,dia03068.txt,Baja_California_Sur\diario\dia03068.txt,03068,03068,VILLA CONSTITUCION,BAJA CALIFORNIA SUR,COMONDÚ,OPERANDO,,25.03222222,-111.6702778,50.0,utf-8-sig,True,True,FECHA | PRECIP | EVAP | TMAX | TMIN,True,True,True,1957-03-01,2026-03-06,2001-01-01,2025-12-31,24507,9015,0,15492,9015,0,
Baja_California_Sur,dia03069.txt,Baja_California_Sur\diario\dia03069.txt,03069,03069,VILLA INSURGENTES,BAJA CALIFORNIA SUR,COMONDÚ,OPERANDO,,25.26166667,-111.7744444,30.0,utf-8-sig,True,True,FECHA | PRECIP | EVAP | TMAX | TMIN,True,True,True,1967-08-08,2025-10-31,2001-03-13,2025-10-31,18480,8700,0,9780,8700,0,
Baja_California_Sur,dia03070.txt,Baja_California_Sur\diario\dia03070.txt,03070,03070,VIZCAINO,BAJA CALIFORNIA SUR,MULEGÉ,SUSPENDIDA,,27.57166667,-113.5711111,45.0,utf-8-sig,True,True,FECHA | PRECIP | EVAP | TMAX | TMIN,True,True,True,1961-01-01,1972-02-29,,,3544,0,0,3544,0,0,
Baja_California_Sur,dia03072.txt,Baja_California_Sur\diario\dia03072.txt,03072,03072,EL COYOTE,BAJA CALIFORNIA SUR,MULEGÉ,SUSPENDIDA,,26.77361111,-111.9097222,6.0,utf-8-sig,True,True,FECHA | PRECIP | EVAP | TMAX | TMIN,True,True,True,1972-04-13,1994-03-31,,,7812,0,0,7812,0,0,
Baja_California_Sur,dia03073.txt,Baja_California_Sur\diario\dia03073.txt,03073,03073,GUSTAVO DIAZ ORDAZ,BAJA CALIFORNIA SUR,MULEGÉ,OPERANDO,,27.64722222,-113.4430556,80.0,utf-8-sig,True,True,FECHA | PRECIP | EVAP | TMAX | TMIN,True,True,True,1971-10-01,2026-03-06,2001-01-01,2025-12-31,19629,9045,0,10584,9045,0,
Baja_California_Sur,dia03074.txt,Baja_California_Sur\diario\dia03074.txt,03074,03074,LA PAZ (DGE),BAJA CALIFORNIA SUR,LA PAZ,OPERANDO,,24.13472222,-110.3361111,16.0,utf-8-sig,True,True,FECHA | PRECIP | EVAP | TMAX | TMIN,True,True,True,1940-01-01,2026-03-06,2001-01-01,2025-12-31,30166,9129,0,21037,9129,0,
Baja_California_Sur,dia03075.txt,Baja_California_Sur\diario\dia03075.txt,03075,03075,SAN PEDRO DE LA PRESA,BAJA CALIFORNIA SUR,LA PAZ,OPERANDO,,24.84444444,-110.9736111,240.0,utf-8-sig,True,True,FECHA | PRECIP | EVAP | TMAX | TMIN,True,True,True,1972-06-16,2025-10-30,2001-01-01,2025-10-30,18566,8832,0,9734,8832,0,
Baja_California_Sur,dia03076.txt,Baja_California_Sur\diario\dia03076.txt,03076,03076,TODOS SANTOS (SMN),BAJA CALIFORNIA SUR,LA PAZ,SUSPENDIDA,,23.40638889,-110.2016667,40.0,utf-8-sig,True,True,FECHA | PRECIP | EVAP | TMAX | TMIN,True,True,True,1938-01-01,1973-03-31,,,7490,0,0,7490,0,0,
Baja_California_Sur,dia03077.txt,Baja_California_Sur\diario\dia03077.txt,03077,03077,EL CARRIZAL,BAJA CALIFORNIA SUR,LA PAZ,OPERANDO,,23.75555556,-110.2705556,222.0,utf-8-sig,True,True,FECHA | PRECIP | EVAP | TMAX | TMIN,True,True,True,1961-01-01,2025-04-30,2001-01-01,2025-04-30,21986,8255,0,13731,8255,0,
Baja_California_Sur,dia03093.txt,Baja_California_Sur\diario\dia03093.txt,03093,03093,SAN BRUNO,BAJA CALIFORNIA SUR,MULEGÉ,OPERANDO,,27.15416667,-112.1527778,20.0,utf-8-sig,True,True,FECHA | PRECIP | EVAP | TMAX | TMIN,True,True,True,1973-07-13,2025-03-31,2001-01-01,2025-03-31,16193,8717,0,7476,8717,0,
Baja_California_Sur,dia03094.txt,Baja_California_Sur\diario\dia03094.txt,03094,03094,SANTA ANITA,BAJA CALIFORNIA SUR,LOS CABOS,OPERANDO,,23.17833333,-109.7016667,80.0,utf-8-sig,True,True,FECHA | PRECIP | EVAP | TMAX | TMIN,True,True,True,1973-05-13,2025-03-31,2001-01-01,2025-03-31,18122,8380,0,9742,8380,0,
Baja_California_Sur,dia03095.txt,Baja_California_Sur\diario\dia03095.txt,03095,03095,E.T.A. 184 VILLA INSURGENTES,BAJA CALIFORNIA SUR,COMONDÚ,SUSPENDIDA,,25.26388889,-111.7763889,35.0,utf-8-sig,True,True,FECHA | PRECIP | EVAP | TMAX | TMIN,True,True,True,1973-12-01,1983-12-31,,,2753,0,0,2753,0,0,
Baja_California_Sur,dia03096.txt,Baja_California_Sur\diario\dia03096.txt,03096,03096,LAS CUEVAS,BAJA CALIFORNIA SUR,LOS CABOS,OPERANDO,,23.53888889,-109.6763889,80.0,utf-8-sig,True,True,FECHA | PRECIP | EVAP | TMAX | TMIN,True,True,True,1973-11-01,2025-09-30,2001-01-01,2025-09-30,18142,8829,0,9313,8829,0,
Baja_California_Sur,dia03097.txt,Baja_California_Sur\diario\dia03097.txt,03097,03097,EL PESCADERO,BAJA CALIFORNIA SUR,LA PAZ,OPERANDO,,23.36388889,-110.1652778,60.0,utf-8-sig,True,True,FECHA | PRECIP | EVAP | TMAX | TMIN,True,True,True,1974-05-01,2025-04-30,2001-01-01,2025-04-30,18198,8858,0,9340,8858,0,
Baja_California_Sur,dia03098.txt,Baja_California_Sur\diario\dia03098.txt,03098,03098,LOS DOLORES,BAJA CALIFORNIA SUR,MULEGÉ,OPERANDO,,26.52666667,-112.6533333,120.0,utf-8-sig,True,True,FECHA | PRECIP | EVAP | TMAX | TMIN,True,True,True,1974-07-01,2025-03-31,2001-01-01,2025-03-31,13102,8058,0,5044,8058,0,
Baja_California_Sur,dia03099.txt,Baja_California_Sur\diario\dia03099.txt,03099,03099,SAN JUAN LONDO,BAJA CALIFORNIA SUR,LORETO,OPERANDO,,26.22472222,-111.475,40.0,utf-8-sig,True,True,FECHA | PRECIP | EVAP | TMAX | TMIN,True,True,True,1974-08-01,2024-12-31,2001-01-01,2024-12-31,17054,8225,0,8829,8225,0,
Baja_California_Sur,dia03100.txt,Baja_California_Sur\diario\dia03100.txt,03100,03100,SAN ZACARIAS,BAJA CALIFORNIA SUR,MULEGÉ,OPERANDO,,27.1375,-112.9055556,90.0,utf-8-sig,True,True,FECHA | PRECIP | EVAP | TMAX | TMIN,True,True,True,1974-10-19,2025-06-30,2001-01-01,2025-06-30,17753,8427,0,9326,8427,0,
Baja_California_Sur,dia03101.txt,Baja_California_Sur\diario\dia03101.txt,03101,03101,VILLA MORELOS,BAJA CALIFORNIA SUR,COMONDÚ,OPERANDO,,24.93,-111.6283333,57.0,utf-8-sig,True,True,FECHA | PRECIP | EVAP | TMAX | TMIN,True,True,True,1974-06-01,2025-09-30,2001-01-01,2025-09-30,18229,8957,0,9272,8957,0,
Baja_California_Sur,dia03102.txt,Baja_California_Sur\diario\dia03102.txt,03102,03102,EMILIANO ZAPATA,BAJA CALIFORNIA SUR,MULEGÉ,OPERANDO,,27.54861111,-113.3888889,60.0,utf-8-sig,True,True,FECHA | PRECIP | EVAP | TMAX | TMIN,True,True,True,1974-10-19,2025-03-31,2001-01-01,2025-03-31,17225,8421,0,8804,8421,0,
Baja_California_Sur,dia03103.txt,Baja_California_Sur\diario\dia03103.txt,03103,03103,SAN JOSE DE MAGDALENA,BAJA CALIFORNIA SUR,MULEGÉ,OPERANDO,,27.06111111,-112.2388889,230.0,utf-8-sig,True,True,FECHA | PRECIP | EVAP | TMAX | TMIN,True,True,True,1974-08-01,2025-06-30,2001-01-01,2025-06-30,17998,8601,0,9397,8601,0,
Baja_California_Sur,dia03104.txt,Baja_California_Sur\diario\dia03104.txt,03104,03104,LOS ROBLES,BAJA CALIFORNIA SUR,LA PAZ,OPERANDO,,24.03611111,-110.125,665.0,utf-8-sig,True,True,FECHA | PRECIP | EVAP | TMAX | TMIN,True,True,True,1976-08-04,2025-04-30,2001-01-01,2025-04-30,16991,8320,0,8671,8320,0,
Baja_California_Sur,dia03105.txt,Baja_California_Sur\diario\dia03105.txt,03105,03105,SAN IGNACIO DE LOS ROMERO,BAJA CALIFORNIA SUR,COMONDÚ,OPERANDO,,25.5875,-111.6402778,140.0,utf-8-sig,True,True,FECHA | PRECIP | EVAP | TMAX | TMIN,True,True,True,1976-08-25,2025-10-31,2001-01-01,2025-10-31,17223,9037,0,8186,9037,0,
Baja_California_Sur,dia03106.txt,Baja_California_Sur\diario\dia03106.txt,03106,03106,SAN JOSE DEL PACIFICO,BAJA CALIFORNIA SUR,MULEGÉ,SUSPENDIDA,,27.5375,-114.4722222,380.0,utf-8-sig,True,True,FECHA | PRECIP | EVAP | TMAX | TMIN,True,True,True,1975-01-01,1987-09-08,,,4390,0,0,4390,0,0,
Baja_California_Sur,dia03107.txt,Baja_California_Sur\diario\dia03107.txt,03107,03107,SANTA AGUEDA,BAJA CALIFORNIA SUR,MULEGÉ,OPERANDO,,27.26,-112.3508333,220.0,utf-8-sig,True,True,FECHA | PRECIP | EVAP | TMAX | TMIN,True,True,True,1976-09-01,2025-09-30,2001-01-01,2025-09-30,17129,8613,0,8516,8613,0,
Baja_California_Sur,dia03108.txt,Baja_California_Sur\diario\dia03108.txt,03108,03108,HUATAMOTE,BAJA CALIFORNIA SUR,LORETO,OPERANDO,,25.59722222,-111.3361111,342.0,utf-8-sig,True,True,FECHA | PRECIP | EVAP | TMAX | TMIN,True,True,True,1976-10-01,2025-10-31,2001-01-01,2025-10-31,17616,8945,0,8671,8945,0,
Baja_California_Sur,dia03109.txt,Baja_California_Sur\diario\dia03109.txt,03109,03109,LA POZA DE LEON,BAJA CALIFORNIA SUR,COMONDÚ,OPERANDO,,25.3625,-111.1722222,360.0,utf-8-sig,True,True,FECHA | PRECIP | EVAP | TMAX | TMIN,True,True,True,1976-01-01,2025-10-30,2001-01-01,2025-10-30,16887,8705,0,8182,8705,0,
Baja_California_Sur,dia03110.txt,Baja_California_Sur\diario\dia03110.txt,03110,03110,ALFREDO V. BONFIL,BAJA CALIFORNIA SUR,LA PAZ,OPERANDO,,24.14861111,-110.5677778,70.0,utf-8-sig,True,True,FECHA | PRECIP | EVAP | TMAX | TMIN,True,True,True,1977-06-22,2025-10-31,2001-01-01,2025-10-31,17254,8860,0,8394,8860,0,
Baja_California_Sur,dia03112.txt,Baja_California_Sur\diario\dia03112.txt,03112,03112,EL CARDON,BAJA CALIFORNIA SUR,MULEGÉ,SUSPENDIDA,,26.79805556,-113.1511111,4.0,utf-8-sig,True,True,FECHA | PRECIP | EVAP | TMAX | TMIN,True,True,True,1977-05-01,1983-12-31,,,1917,0,0,1917,0,0,
Baja_California_Sur,dia03113.txt,Baja_California_Sur\diario\dia03113.txt,03113,03113,EL CONEJO,BAJA CALIFORNIA SUR,LA PAZ,SUSPENDIDA,,24.07361111,-110.9972222,12.0,utf-8-sig,True,True,FECHA | PRECIP | EVAP | TMAX | TMIN,True,True,True,1977-09-10,1981-06-28,,,651,0,0,651,0,0,
Baja_California_Sur,dia03114.txt,Baja_California_Sur\diario\dia03114.txt,03114,03114,ENSENADA DE MUERTOS,BAJA CALIFORNIA SUR,LA PAZ,SUSPENDIDA,,23.99694444,-109.8266667,10.0,utf-8-sig,True,True,FECHA | PRECIP | EVAP | TMAX | TMIN,True,True,True,1977-09-01,1979-03-31,,,571,0,0,571,0,0,
Baja_California_Sur,dia03115.txt,Baja_California_Sur\diario\dia03115.txt,03115,03115,LOS LAURELES,BAJA CALIFORNIA SUR,MULEGÉ,SUSPENDIDA,,27.6,-113.55,70.0,utf-8-sig,True,True,FECHA | PRECIP | EVAP | TMAX | TMIN,True,True,True,1977-07-01,1990-09-30,,,2748,0,0,2748,0,0,
Baja_California_Sur,dia03116.txt,Baja_California_Sur\diario\dia03116.txt,03116,03116,LOS CERRITOS,BAJA CALIFORNIA SUR,COMONDÚ,OPERANDO,,25.18888889,-111.4111111,130.0,utf-8-sig,True,True,FECHA | PRECIP | EVAP | TMAX | TMIN,True,True,True,1977-06-16,2025-10-31,2001-01-01,2025-10-31,17266,8944,0,8322,8944,0,
Baja_California_Sur,dia03117.txt,Baja_California_Sur\diario\dia03117.txt,03117,03117,BAHIA ASUNCION,BAJA CALIFORNIA SUR,MULEGÉ,OPERANDO,,27.1425,-114.3,10.0,utf-8-sig,True,True,FECHA | PRECIP | EVAP | TMAX | TMIN,True,True,True,1980-03-01,2025-09-30,2001-01-01,2025-09-30,14474,8050,0,6424,8050,0,
Baja_California_Sur,dia03119.txt,Baja_California_Sur\diario\dia03119.txt,03119,03119,BENITO JUAREZ,BAJA CALIFORNIA SUR,MULEGÉ,OPERANDO,,27.88472222,-113.7777778,55.0,utf-8-sig,True,True,FECHA | PRECIP | EVAP | TMAX | TMIN,True,True,True,1979-09-01,2025-09-30,2001-01-01,2025-09-30,16401,8878,0,7523,8878,0,
Baja_California_Sur,dia03120.txt,Baja_California_Sur\diario\dia03120.txt,03120,03120,COLONIA PLUTARCO ELIAS CALLES,BAJA CALIFORNIA SUR,LA PAZ,OPERANDO,,23.22083333,-110.1444444,10.0,utf-8-sig,True,True,FECHA | PRECIP | EVAP | TMAX | TMIN,True,True,True,1979-08-01,2025-04-30,2001-01-01,2025-04-30,14715,8571,0,6144,8571,0,
Baja_California_Sur,dia03121.txt,Baja_California_Sur\diario\dia03121.txt,03121,03121,EL DATIL,BAJA CALIFORNIA SUR,MULEGÉ,OPERANDO,,26.885,-112.6161111,440.0,utf-8-sig,True,True,FECHA | PRECIP | EVAP | TMAX | TMIN,True,True,True,1980-03-01,2025-11-13,2001-01-01,2025-11-13,15700,8720,0,6980,8720,0,
Baja_California_Sur,dia03122.txt,Baja_California_Sur\diario\dia03122.txt,03122,03122,GUILLERMO PRIETO,BAJA CALIFORNIA SUR,MULEGÉ,OPERANDO,,27.83888889,-113.3208333,200.0,utf-8-sig,True,True,FECHA | PRECIP | EVAP | TMAX | TMIN,True,True,True,1979-09-01,2025-10-31,2001-01-01,2025-10-31,15426,8480,0,6946,8480,0,
Baja_California_Sur,dia03123.txt,Baja_California_Sur\diario\dia03123.txt,03123,03123,PUNTA EUGENIA,BAJA CALIFORNIA SUR,MULEGÉ,OPERANDO,,27.84694444,-115.0813889,10.0,utf-8-sig,True,True,FECHA | PRECIP | EVAP | TMAX | TMIN,True,True,True,1980-04-01,2025-03-31,2001-01-01,2025-03-31,14749,7808,0,6941,7808,0,
Baja_California_Sur,dia03124.txt,Baja_California_Sur\diario\dia03124.txt,03124,03124,RAMADITAS,BAJA CALIFORNIA SUR,COMONDÚ,OPERANDO,,25.12222222,-111.9541667,30.0,utf-8-sig,True,True,FECHA | PRECIP | EVAP | TMAX | TMIN,True,True,True,1979-08-04,2025-09-30,2001-01-01,2025-09-30,16174,8928,0,7246,8928,0,
Baja_California_Sur,dia03125.txt,Baja_California_Sur\diario\dia03125.txt,03125,03125,SAN AGUSTIN,BAJA CALIFORNIA SUR,LA PAZ,SUSPENDIDA,,24.15833333,-110.9236111,100.0,utf-8-sig,True,True,FECHA | PRECIP | EVAP | TMAX | TMIN,True,True,True,1979-08-01,1990-07-31,,,3784,0,0,3784,0,0,
Baja_California_Sur,dia03126.txt,Baja_California_Sur\diario\dia03126.txt,03126,03126,SAN ANTONIO DE LA SIERRA,BAJA CALIFORNIA SUR,COMONDÚ,OPERANDO,,26.52083333,-112.5041667,160.0,utf-8-sig,True,True,FECHA | PRECIP | EVAP | TMAX | TMIN,True,True,True,1980-07-01,2025-03-31,2001-01-01,2025-03-31,15722,8571,0,7151,8571,0,
Baja_California_Sur,dia03128.txt,Baja_California_Sur\diario\dia03128.txt,03128,03128,SAN LUIS GONZAGA,BAJA CALIFORNIA SUR,COMONDÚ,OPERANDO,,24.9075,-111.2905556,160.0,utf-8-sig,True,True,FECHA | PRECIP | EVAP | TMAX | TMIN,True,True,True,1979-09-01,2025-03-31,2001-01-01,2025-03-31,15655,8723,0,6932,8723,0,
Baja_California_Sur,dia03129.txt,Baja_California_Sur\diario\dia03129.txt,03129,03129,SAN NICOLAS,BAJA CALIFORNIA SUR,LORETO,OPERANDO,,26.54333333,-111.5491667,15.0,utf-8-sig,True,True,FECHA | PRECIP | EVAP | TMAX | TMIN,True,True,True,1979-09-01,2025-09-30,2001-01-01,2025-09-30,16667,9000,0,7667,9000,0,
Baja_California_Sur,dia03130.txt,Baja_California_Sur\diario\dia03130.txt,03130,03130,SAN RAMON,BAJA CALIFORNIA SUR,COMONDÚ,OPERANDO,,25.27916667,-111.2852778,230.0,utf-8-sig,True,True,FECHA | PRECIP | EVAP | TMAX | TMIN,True,True,True,1980-05-01,2025-03-31,2001-01-01,2025-03-31,15996,8568,0,7428,8568,0,
Baja_California_Sur,dia03131.txt,Baja_California_Sur\diario\dia03131.txt,03131,03131,SANTA FE,BAJA CALIFORNIA SUR,LA PAZ,OPERANDO,,24.30416667,-111.2125,10.0,utf-8-sig,True,True,FECHA | PRECIP | EVAP | TMAX | TMIN,True,True,True,1979-08-01,2025-02-28,2001-01-01,2025-02-28,15408,8612,0,6796,8612,0,
Baja_California_Sur,dia03132.txt,Baja_California_Sur\diario\dia03132.txt,03132,03132,CIUDAD CONSTITUCION (OBS),BAJA CALIFORNIA SUR,COMONDÚ,OPERANDO,76402,25.00972222,-111.6466667,48.3,utf-8-sig,True,True,FECHA | PRECIP | EVAP | TMAX | TMIN,True,True,True,1981-01-01,2023-10-01,2001-01-01,2023-10-01,12388,5426,0,6962,5426,0,
Baja_California_Sur,dia03133.txt,Baja_California_Sur\diario\dia03133.txt,03133,03133,SAN ANTONIO NORTE,BAJA CALIFORNIA SUR,LORETO,OPERANDO,,26.14166667,-111.4555556,100.0,utf-8-sig,True,True,FECHA | PRECIP | EVAP | TMAX | TMIN,True,True,True,1978-12-13,2025-10-05,2001-01-01,2025-10-05,14490,8239,0,6251,8239,0,
Baja_California_Sur,dia03134.txt,Baja_California_Sur\diario\dia03134.txt,03134,03134,LOS CANTILITOS,BAJA CALIFORNIA SUR,LA PAZ,OPERANDO,,24.59388889,-110.9916667,160.0,utf-8-sig,True,True,FECHA | PRECIP | EVAP | TMAX | TMIN,True,True,True,1978-11-01,2025-03-31,2001-01-01,2025-03-31,16501,8465,0,8036,8465,0,
Baja_California_Sur,dia03135.txt,Baja_California_Sur\diario\dia03135.txt,03135,03135,LA CANDELARIA,BAJA CALIFORNIA SUR,LOS CABOS,OPERANDO,,23.075,-110.0258333,195.0,utf-8-sig,True,True,FECHA | PRECIP | EVAP | TMAX | TMIN,True,True,True,1978-11-07,2024-12-31,2001-01-01,2024-12-31,16645,8741,0,7904,8741,0,
Baja_California_Sur,dia03136.txt,Baja_California_Sur\diario\dia03136.txt,03136,03136,LOS FILOS,BAJA CALIFORNIA SUR,LA PAZ,SUSPENDIDA,,23.96666667,-110.4666667,169.0,utf-8-sig,True,True,FECHA | PRECIP | EVAP | TMAX | TMIN,True,True,True,1978-07-01,1981-06-11,,,884,0,0,884,0,0,
Baja_California_Sur,dia03137.txt,Baja_California_Sur\diario\dia03137.txt,03137,03137,LA SOLEDAD SUR,BAJA CALIFORNIA SUR,LA PAZ,OPERANDO,,23.14333333,-110.0011111,400.0,utf-8-sig,True,True,FECHA | PRECIP | EVAP | TMAX | TMIN,True,True,True,1978-03-16,2025-04-30,2001-01-01,2025-04-30,16096,8125,0,7971,8125,0,
Baja_California_Sur,dia03138.txt,Baja_California_Sur\diario\dia03138.txt,03138,03138,LIGUI,BAJA CALIFORNIA SUR,LORETO,OPERANDO,,25.73472222,-111.2694444,10.0,utf-8-sig,True,True,FECHA | PRECIP | EVAP | TMAX | TMIN,True,True,True,1978-12-01,2025-03-31,2001-01-01,2025-03-31,16552,8625,0,7927,8625,0,
Baja_California_Sur,dia03139.txt,Baja_California_Sur\diario\dia03139.txt,03139,03139,C.E.F. LA PAZ,BAJA CALIFORNIA SUR,LA PAZ,SUSPENDIDA,,23.38333333,-110.15,92.0,utf-8-sig,True,True,FECHA | PRECIP | EVAP | TMAX | TMIN,True,True,True,1978-01-01,1998-12-31,,,6355,0,0,6355,0,0,
Baja_California_Sur,dia03140.txt,Baja_California_Sur\diario\dia03140.txt,03140,03140,SAN JUAN DE LA COSTA,BAJA CALIFORNIA SUR,LA PAZ,SUSPENDIDA,,24.375,-110.6916667,30.0,utf-8-sig,True,True,FECHA | PRECIP | EVAP | TMAX | TMIN,True,True,True,1978-06-01,1983-12-31,,,1717,0,0,1717,0,0,
Baja_California_Sur,dia03141.txt,Baja_California_Sur\diario\dia03141.txt,03141,03141,SAN LUCAS NORTE,BAJA CALIFORNIA SUR,COMONDÚ,OPERANDO,,25.61388889,-111.7461111,200.0,utf-8-sig,True,True,FECHA | PRECIP | EVAP | TMAX | TMIN,True,True,True,1978-12-01,2025-09-30,2001-01-01,2025-09-30,16270,8654,0,7616,8654,0,
Baja_California_Sur,dia03143.txt,Baja_California_Sur\diario\dia03143.txt,03143,03143,LAS PALMAS,BAJA CALIFORNIA SUR,LA PAZ,OPERANDO,,23.68055556,-109.6972222,15.0,utf-8-sig,True,True,FECHA | PRECIP | EVAP | TMAX | TMIN,True,True,True,1978-04-01,2026-03-06,2001-01-01,2025-12-31,17295,9095,0,8200,9095,0,
